Date/Time,Latitude,Longitude,Temperature,Humidity,Pressure,Compass,MagX,MagY,MagZ,Pitch,Roll,Yaw,AccelX,AccelY,AccelZ,R,G,B,C,Motion
2022-01-31 12:12:03.024742,-7.481,165.589,32.7,31.3,1015.1,14.5,7.5,-1.9,2.9,360.0,360.0,15.0,0.0,0.0,-0.0,24,25,21,74,1
2022-01-31 12:12:08.265259,-7.747,165.781,32.6,29.6,1015.1,14.6,15.4,-4.7,6.0,360.0,360.0,15.0,0.0,0.0,0.0,24,25,21,73,1
2022-01-31 12:12:13.391075,-8.006,165.968,32.7,31.6,1015.1,14.7,18.6,-5.7,7.1,360.0,360.0,15.0,0.0,0.0,-0.0,24,25,21,74,1
2022-01-31 12:12:18.515332,-8.266,166.156,32.7,31.7,1015.1,14.8,20.1,-6.4,7.5,360.0,360.0,15.0,0.0,0.0,0.0,24,25,21,74,1
2022-01-31 12:12:23.639694,-8.525,166.345,32.7,31.7,1015.1,14.9,20.6,-6.7,7.3,360.0,360.0,15.0,0.0,0.0,-0.0,24,25,21,74,1
2022-01-31 12:12:28.760772,-8.784,166.533,32.7,31.8,1015.1,15.0,20.8,-6.7,7.0,360.0,360.0,15.0,0.0,0.0,-0.0,23,24,21,73,1
2022-01-31 12:12:33.869957,-9.043,166.721,32.6,31.9,1015.1,15.1,20.7,-6.8,6.4,360.0,360.0,15.0,0.0,0.0,0.0,24,25,21,74,1
2022-01-31 12:12:38.990537,-9.301,166.91,32.8,31.5,1015.1,15.2,20.8,-6.7,6.2,360.0,360.0,15.0,0.0,0.0,0.0,24,25,21,73,1
2022-01-31 12:12:44.111070,-9.56,167.1,32.8,31.6,1015.1,15.3,20.8,-6.5,6.1,360.0,360.0,15.0,0.0,0.0,-0.0,23,24,21,73,1
2022-01-31 12:12:49.235930,-9.819,167.289,32.7,31.6,1015.1,15.4,20.6,-6.8,6.3,360.0,360.0,15.0,0.0,0.0,-0.0,24,25,21,75,1
2022-01-31 12:12:54.348812,-10.077,167.479,32.7,31.6,1015.1,15.5,20.6,-6.3,5.6,360.0,360.0,16.0,0.0,0.0,-0.0,24,25,21,74,1
2022-01-31 12:12:59.461078,-10.335,167.669,32.7,31.7,1015.1,15.6,20.6,-6.7,5.9,360.0,360.0,16.0,0.0,0.0,-0.0,23,25,21,74,1
2022-01-31 12:13:04.571072,-10.592,167.859,32.7,31.7,1015.1,15.7,20.6,-6.8,5.9,360.0,360.0,16.0,0.0,0.0,-0.0,24,25,21,74,1
2022-01-31 12:13:09.691118,-10.85,168.05,32.8,31.6,1015.1,15.8,20.7,-7.2,5.0,360.0,360.0,16.0,0.0,0.0,-0.1,24,25,21,74,1
2022-01-31 12:13:14.801098,-11.107,168.241,32.8,31.6,1015.1,16.0,20.5,-7.8,4.5,360.0,360.0,16.0,0.0,0.0,0.1,23,24,21,73,1
2022-01-31 12:13:19.919298,-11.365,168.433,32.7,31.6,1015.1,16.1,20.6,-7.5,4.5,360.0,360.0,16.0,0.0,0.0,-0.0,24,25,21,74,1
2022-01-31 12:13:25.030577,-11.622,168.624,32.8,31.4,1015.1,16.3,20.5,-7.0,4.2,360.0,360.0,16.0,0.0,0.0,0.0,23,25,21,74,1
2022-01-31 12:13:30.141082,-11.879,168.816,32.7,31.9,1015.1,16.4,20.5,-7.2,4.0,360.0,360.0,16.0,0.0,0.0,-0.1,23,25,21,73,1
2022-01-31 12:13:35.259860,-12.136,169.009,32.6,31.5,1015.0,16.5,20.7,-7.3,3.5,360.0,360.0,17.0,0.0,0.0,-0.0,23,24,21,73,1
2022-01-31 12:13:40.378630,-12.393,169.202,32.7,31.5,1015.0,16.6,20.5,-7.5,3.3,360.0,360.0,17.0,0.0,0.0,0.0,23,24,21,73,1
2022-01-31 12:13:45.489383,-12.649,169.396,32.7,31.6,1015.0,16.8,20.3,-7.6,3.4,360.0,360.0,17.0,0.0,0.0,-0.0,24,25,21,74,1
2022-01-31 12:13:50.599971,-12.905,169.589,32.8,31.8,1015.0,16.9,20.4,-7.9,2.9,360.0,360.0,17.0,0.0,0.0,0.0,24,25,21,74,1
2022-01-31 12:13:55.711080,-13.161,169.783,32.9,31.8,1015.0,17.1,20.4,-7.9,3.0,360.0,360.0,17.0,0.0,0.0,0.1,24,25,21,74,1
2022-01-31 12:14:00.829602,-13.417,169.978,32.7,31.9,1015.1,17.2,20.3,-7.9,3.0,360.0,360.0,17.0,0.0,0.0,0.0,23,24,21,73,1
2022-01-31 12:14:05.941077,-13.673,170.173,32.7,31.6,1015.1,17.4,20.0,-7.8,3.1,360.0,360.0,17.0,0.0,0.0,-0.0,23,24,21,73,1
2022-01-31 12:14:11.051076,-13.928,170.369,32.7,31.7,1015.1,17.6,20.2,-7.9,2.8,360.0,360.0,18.0,0.0,0.0,-0.0,23,24,21,73,1
2022-01-31 12:14:16.169928,-14.183,170.565,32.7,31.5,1015.0,17.7,20.2,-7.9,2.5,360.0,360.0,18.0,0.0,0.0,0.1,23,24,21,73,1
2022-01-31 12:14:21.286024,-14.439,170.762,32.7,31.7,1015.0,17.8,20.2,-7.9,2.0,360.0,360.0,18.0,0.0,0.0,-0.0,23,24,21,73,1
2022-01-31 12:14:26.410466,-14.694,170.959,32.7,31.6,1015.1,18.0,19.9,-7.7,2.1,360.0,360.0,18.0,0.0,0.0,-0.1,24,25,21,73,1
2022-01-31 12:14:31.534498,-14.949,171.157,32.7,31.6,1015.1,18.1,19.9,-7.7,2.0,360.0,360.0,18.0,0.0,0.0,-0.1,23,24,21,73,1
2022-01-31 12:14:36.657796,-15.204,171.356,32.7,31.6,1015.0,18.2,19.9,-7.9,1.7,360.0,360.0,18.0,0.0,0.0,-0.0,23,25,21,73,1
2022-01-31 12:14:41.781224,-15.459,171.555,32.8,31.6,1015.0,18.4,19.9,-8.1,1.6,360.0,360.0,18.0,0.0,0.0,0.0,23,24,21,73,1
2022-01-31 12:14:46.904538,-15.713,171.754,32.7,31.7,1015.0,18.5,19.9,-8.1,1.4,360.0,360.0,19.0,0.0,0.0,0.0,23,24,21,73,1
2022-01-31 12:14:52.012997,-15.967,171.954,32.7,31.5,1015.0,18.7,19.7,-8.3,1.0,360.0,360.0,19.0,0.0,0.0,-0.1,24,25,21,73,1
2022-01-31 12:14:57.137208,-16.221,172.154,32.7,30.1,1015.0,18.8,19.9,-8.1,0.7,360.0,360.0,19.0,0.0,0.0,0.0,24,25,21,74,1
2022-01-31 12:15:02.260587,-16.474,172.355,32.7,31.5,1015.0,19.0,19.8,-8.2,0.3,360.0,360.0,19.0,0.0,0.0,-0.0,23,24,21,73,1
2022-01-31 12:15:07.373483,-16.727,172.557,32.7,31.8,1015.1,19.1,19.8,-8.3,0.7,360.0,360.0,19.0,0.0,0.0,-0.1,23,25,21,74,1
2022-01-31 12:15:12.493294,-16.98,172.759,32.7,31.7,1015.0,19.3,19.9,-8.3,0.2,360.0,360.0,19.0,0.0,0.0,-0.0,23,25,21,73,1
2022-01-31 12:15:17.613985,-17.233,172.962,32.8,31.3,1015.0,19.4,20.2,-7.9,-0.0,360.0,360.0,19.0,0.0,0.0,0.1,23,25,21,73,1
2022-01-31 12:15:22.730700,-17.486,173.165,32.7,31.6,1015.0,19.5,20.0,-7.9,0.2,360.0,360.0,20.0,0.0,0.0,0.0,23,24,21,73,1
2022-01-31 12:15:27.841066,-17.737,173.368,32.7,30.7,1015.0,19.6,19.9,-8.2,-0.2,360.0,360.0,20.0,0.0,0.0,-0.0,23,24,21,73,1
2022-01-31 12:15:32.964528,-17.99,173.573,32.7,31.8,1015.0,19.7,19.9,-8.5,-0.1,360.0,360.0,20.0,0.0,0.0,-0.0,23,24,21,73,1
2022-01-31 12:15:38.087990,-18.242,173.779,32.8,31.7,1015.0,19.9,19.5,-8.7,-0.8,360.0,360.0,20.0,0.0,0.0,0.1,24,24,21,74,1
2022-01-31 12:15:43.201086,-18.493,173.984,32.6,31.8,1015.0,20.0,19.7,-8.9,-0.7,360.0,360.0,20.0,0.0,0.0,0.0,23,25,21,73,1
2022-01-31 12:15:48.320992,-18.744,174.191,32.8,31.6,1015.0,20.2,19.7,-8.6,-1.3,360.0,360.0,20.0,0.0,0.0,-0.0,23,24,21,73,1
2022-01-31 12:15:53.441083,-18.995,174.398,32.6,31.4,1015.0,20.3,19.6,-8.7,-1.5,360.0,360.0,20.0,0.0,0.0,-0.0,23,24,21,73,1
2022-01-31 12:15:58.560536,-19.245,174.606,32.6,31.6,1015.1,20.5,19.9,-9.1,-1.9,360.0,360.0,21.0,0.0,0.0,-0.0,23,24,21,73,1
2022-01-31 12:16:03.678877,-19.495,174.814,32.8,31.5,1015.1,20.6,19.9,-8.7,-1.8,360.0,360.0,21.0,0.0,0.0,0.0,24,25,21,74,1
2022-01-31 12:16:08.786350,-19.745,175.023,32.7,31.8,1015.0,20.7,19.7,-8.9,-2.0,360.0,360.0,21.0,0.0,0.0,-0.0,23,25,21,74,1
2022-01-31 12:16:13.897535,-19.994,175.233,32.7,31.7,1015.1,20.9,19.9,-9.2,-1.9,360.0,360.0,21.0,0.0,0.0,-0.0,23,25,21,73,1
2022-01-31 12:16:19.009069,-20.243,175.443,32.8,31.5,1015.0,21.0,19.7,-9.2,-1.8,360.0,360.0,21.0,0.0,0.0,0.0,23,25,21,74,1
2022-01-31 12:16:24.121080,-20.492,175.654,32.7,31.5,1015.0,21.2,19.6,-9.3,-2.6,360.0,360.0,21.0,0.0,0.0,-0.0,23,24,21,73,1
2022-01-31 12:16:29.231086,-20.74,175.866,32.7,31.5,1015.0,21.4,19.5,-9.1,-2.9,360.0,360.0,21.0,0.0,0.0,0.0,24,25,21,74,1
2022-01-31 12:16:34.341082,-20.988,176.079,32.8,31.7,1015.0,21.5,19.4,-9.2,-2.9,360.0,360.0,22.0,0.0,0.0,-0.1,24,25,21,74,1
2022-01-31 12:16:39.457966,-21.236,176.292,32.8,31.3,1015.0,21.7,19.7,-9.7,-3.4,360.0,360.0,22.0,0.0,0.0,-0.0,24,25,21,75,1
2022-01-31 12:16:44.575153,-21.483,176.507,32.8,31.6,1015.0,21.9,19.7,-9.5,-3.6,360.0,360.0,22.0,0.0,0.0,-0.0,23,25,21,73,1
2022-01-31 12:16:49.687116,-21.73,176.722,32.7,31.4,1015.0,22.0,19.5,-9.5,-4.6,360.0,360.0,22.0,0.0,0.0,-0.0,24,25,21,74,1
2022-01-31 12:16:54.798947,-21.977,176.937,32.8,31.3,1015.0,22.2,19.5,-9.6,-4.2,360.0,360.0,22.0,0.0,0.0,-0.1,23,24,21,73,1
2022-01-31 12:16:59.908063,-22.223,177.154,32.7,31.4,1015.0,22.3,19.6,-9.6,-4.4,360.0,360.0,22.0,0.0,0.0,-0.1,24,25,21,74,1
2022-01-31 12:17:05.031320,-22.469,177.372,32.8,31.7,1015.0,22.5,19.6,-9.4,-4.7,360.0,360.0,23.0,0.0,0.0,0.1,23,24,21,73,1
2022-01-31 12:17:10.157957,-22.716,177.59,32.7,31.6,1015.0,22.6,19.6,-9.5,-4.8,360.0,360.0,23.0,0.0,0.0,-0.0,24,25,21,74,1
2022-01-31 12:17:15.272922,-22.961,177.81,32.9,31.5,1015.0,22.7,19.5,-9.4,-4.7,360.0,360.0,23.0,0.0,0.0,-0.1,24,25,21,74,1
2022-01-31 12:17:20.395659,-23.206,178.03,32.7,31.7,1015.1,22.9,19.3,-9.5,-4.7,360.0,360.0,23.0,0.0,0.0,-0.0,23,24,21,73,1
2022-01-31 12:17:25.514769,-23.451,178.251,32.8,31.5,1015.1,23.0,19.4,-9.6,-4.9,360.0,360.0,23.0,0.0,0.0,0.0,23,24,21,74,1
2022-01-31 12:17:30.626360,-23.695,178.473,32.7,31.4,1015.0,23.1,19.4,-9.8,-5.5,360.0,360.0,23.0,0.0,0.0,0.0,23,24,21,73,1
2022-01-31 12:17:35.735483,-23.938,178.695,32.8,31.4,1015.0,23.3,19.3,-9.7,-5.8,360.0,360.0,23.0,0.0,0.0,-0.1,23,24,21,73,1
2022-01-31 12:17:40.859728,-24.182,178.919,32.7,31.4,1015.0,23.4,19.5,-9.6,-6.0,360.0,360.0,23.0,0.0,0.0,0.0,23,25,21,73,1
2022-01-31 12:17:45.982468,-24.425,179.144,32.7,31.6,1015.0,23.5,19.6,-9.8,-5.9,360.0,360.0,24.0,0.0,0.0,-0.0,23,24,21,73,1
2022-01-31 12:17:51.094637,-24.668,179.37,32.8,31.4,1015.1,23.7,19.3,-9.8,-6.4,360.0,360.0,24.0,0.0,0.0,-0.0,23,24,21,73,0
2022-01-31 12:17:56.214426,-24.91,179.596,32.8,31.6,1015.1,23.8,19.1,-9.7,-6.8,360.0,360.0,24.0,0.0,0.0,-0.0,23,25,21,73,1
2022-01-31 12:18:01.339323,-25.152,179.824,32.8,31.1,1015.1,23.9,19.2,-9.7,-7.4,360.0,360.0,24.0,0.0,0.0,0.1,23,24,21,73,1
2022-01-31 12:18:06.463737,-25.394,-179.947,32.8,31.5,1015.1,24.0,19.5,-9.9,-7.6,360.0,360.0,24.0,0.0,0.0,0.0,24,25,21,74,1
2022-01-31 12:18:11.586624,-25.635,-179.717,32.8,31.7,1015.1,24.2,19.4,-9.9,-7.7,360.0,360.0,24.0,0.0,0.0,-0.0,23,24,21,73,1
2022-01-31 12:18:16.697907,-25.875,-179.487,32.8,31.7,1015.0,24.3,19.3,-10.0,-8.0,360.0,360.0,24.0,0.0,0.0,-0.0,23,25,21,73,1
2022-01-31 12:18:21.809764,-26.115,-179.256,32.8,31.4,1015.1,24.4,19.1,-10.0,-8.6,360.0,360.0,24.0,0.0,0.0,-0.0,24,25,21,74,1
2022-01-31 12:18:26.921736,-26.354,-179.023,32.8,31.5,1015.1,24.5,19.1,-10.2,-8.6,360.0,360.0,25.0,0.0,0.0,-0.0,23,24,21,72,1
2022-01-31 12:18:32.037976,-26.594,-178.79,32.8,31.4,1015.1,24.7,19.2,-10.0,-8.9,360.0,360.0,25.0,0.0,0.0,-0.1,23,25,21,74,1
2022-01-31 12:18:37.157985,-26.832,-178.555,32.8,31.7,1015.1,24.8,19.2,-9.9,-9.2,360.0,360.0,25.0,0.0,0.0,0.0,23,24,20,72,1
2022-01-31 12:18:42.276909,-27.071,-178.319,32.8,31.4,1015.0,24.9,18.9,-10.1,-9.2,360.0,360.0,25.0,0.0,0.0,0.0,23,25,21,73,1
2022-01-31 12:18:47.388251,-27.308,-178.083,32.9,31.7,1015.1,25.0,19.2,-10.2,-9.6,360.0,360.0,25.0,0.0,0.0,-0.0,23,24,20,72,1
2022-01-31 12:18:52.501245,-27.545,-177.845,32.8,31.7,1015.0,25.1,19.1,-10.2,-9.8,360.0,360.0,25.0,0.0,0.0,0.1,23,25,21,73,1
2022-01-31 12:18:57.620966,-27.782,-177.606,32.7,31.6,1015.1,25.3,18.9,-10.3,-10.0,360.0,360.0,25.0,0.0,0.0,0.1,23,24,21,73,1
2022-01-31 12:19:02.742018,-28.018,-177.366,32.8,31.6,1015.1,25.4,18.8,-10.2,-10.0,360.0,360.0,25.0,0.0,0.0,-0.0,23,24,21,73,1
2022-01-31 12:19:07.861579,-28.254,-177.125,32.8,31.8,1015.0,25.5,18.6,-10.6,-10.1,360.0,360.0,26.0,0.0,0.0,-0.0,23,24,21,73,1
2022-01-31 12:19:12.984858,-28.489,-176.882,32.8,31.3,1015.1,25.7,18.6,-10.6,-10.4,360.0,360.0,26.0,0.0,0.0,-0.0,23,24,21,73,1
2022-01-31 12:19:18.100215,-28.724,-176.639,32.7,31.4,1015.1,25.9,18.8,-10.4,-11.2,360.0,360.0,26.0,0.0,0.0,0.0,23,24,20,72,1
2022-01-31 12:19:23.212205,-28.958,-176.394,32.8,31.4,1015.0,26.0,18.6,-10.4,-11.1,360.0,360.0,26.0,0.0,0.0,-0.0,22,24,20,70,1
2022-01-31 12:19:28.332246,-29.191,-176.148,32.9,31.6,1015.1,26.1,18.7,-10.7,-10.9,360.0,360.0,26.0,0.0,0.0,-0.0,23,25,21,73,0
2022-01-31 12:19:33.456526,-29.425,-175.901,32.8,31.4,1015.1,26.3,18.7,-10.7,-11.5,360.0,360.0,26.0,0.0,0.0,-0.0,23,25,21,74,1
2022-01-31 12:19:38.581417,-29.657,-175.652,32.7,31.5,1015.1,26.4,19.0,-10.3,-11.5,360.0,360.0,26.0,0.0,0.0,-0.0,19,20,16,59,1
2022-01-31 12:19:43.705828,-29.89,-175.402,32.8,31.5,1015.1,26.5,18.5,-10.3,-11.9,360.0,360.0,27.0,0.0,0.0,-0.1,22,23,20,69,1
2022-01-31 12:19:48.831359,-30.121,-175.151,32.8,31.7,1015.1,26.6,18.4,-10.6,-12.0,360.0,360.0,27.0,0.0,0.0,-0.1,21,22,19,66,1
2022-01-31 12:19:53.946236,-30.352,-174.899,32.8,31.6,1015.0,26.7,18.5,-10.8,-12.3,360.0,360.0,27.0,0.0,0.0,-0.1,20,22,18,64,1
2022-01-31 12:19:59.069223,-30.582,-174.645,32.9,31.8,1015.1,26.9,18.3,-10.6,-12.4,360.0,360.0,27.0,0.0,0.0,-0.1,21,22,19,66,1
2022-01-31 12:20:04.184086,-30.812,-174.391,32.9,31.7,1015.0,27.0,18.4,-10.2,-12.4,360.0,360.0,27.0,0.0,0.0,-0.0,21,24,20,69,1
2022-01-31 12:20:09.296737,-31.041,-174.135,32.9,31.6,1015.1,27.1,18.5,-10.5,-13.2,360.0,360.0,27.0,0.0,0.0,0.0,23,25,21,73,1
2022-01-31 12:20:14.417697,-31.269,-173.878,32.9,31.8,1015.0,27.2,18.6,-10.5,-13.2,360.0,360.0,27.0,0.0,0.0,-0.0,23,24,21,73,1
2022-01-31 12:20:19.542362,-31.497,-173.619,32.9,31.6,1015.1,27.3,18.4,-10.6,-13.3,360.0,360.0,27.0,0.0,0.0,-0.1,23,24,20,72,1
2022-01-31 12:20:24.666623,-31.724,-173.358,32.9,31.7,1015.1,27.4,18.4,-10.7,-13.4,360.0,360.0,27.0,0.0,0.0,-0.0,23,24,21,73,1
2022-01-31 12:20:29.790193,-31.951,-173.097,32.8,31.6,1015.1,27.5,18.5,-10.5,-13.0,360.0,360.0,28.0,0.0,0.0,-0.1,23,25,21,73,1
2022-01-31 12:20:34.911120,-32.177,-172.834,32.8,31.7,1015.1,27.6,18.5,-10.7,-13.6,360.0,360.0,28.0,0.0,0.0,-0.0,23,24,20,72,1
2022-01-31 12:20:40.030375,-32.402,-172.57,32.8,31.6,1015.0,27.7,18.7,-10.5,-13.5,360.0,360.0,28.0,0.0,0.0,0.0,23,24,20,72,1
2022-01-31 12:20:45.153564,-32.627,-172.304,32.9,31.7,1015.0,27.7,18.8,-10.6,-13.8,360.0,360.0,28.0,0.0,0.0,-0.0,24,25,21,74,1
2022-01-31 12:20:50.273885,-32.851,-172.037,32.8,31.5,1015.1,27.8,18.7,-10.6,-14.1,360.0,360.0,28.0,0.0,0.0,0.0,23,25,21,74,1
2022-01-31 12:20:55.393727,-33.074,-171.768,32.8,31.3,1015.1,27.9,18.5,-10.3,-14.1,360.0,360.0,28.0,0.0,0.0,-0.0,24,25,21,74,1
2022-01-31 12:21:00.517274,-33.297,-171.498,32.9,31.5,1015.0,27.9,18.7,-10.4,-14.0,360.0,360.0,28.0,0.0,0.0,-0.0,23,24,21,73,1
2022-01-31 12:21:05.629251,-33.519,-171.227,33.0,31.7,1015.1,28.0,18.6,-10.5,-14.5,360.0,360.0,28.0,0.0,0.0,0.0,23,24,20,73,1
2022-01-31 12:21:10.746894,-33.74,-170.954,32.9,31.6,1015.1,28.0,18.5,-10.6,-14.8,360.0,360.0,28.0,0.0,0.0,-0.0,24,25,21,74,1
2022-01-31 12:21:15.861122,-33.96,-170.68,32.9,31.7,1015.1,28.1,18.4,-10.2,-15.1,360.0,360.0,28.0,0.0,0.0,-0.0,23,24,21,73,1
2022-01-31 12:21:20.980788,-34.18,-170.404,32.9,31.6,1015.0,28.1,18.5,-10.5,-14.7,360.0,360.0,28.0,0.0,0.0,0.1,23,24,21,73,1
2022-01-31 12:21:26.105839,-34.399,-170.126,32.8,31.5,1015.1,28.2,18.4,-10.6,-15.0,360.0,360.0,28.0,0.0,0.0,0.1,23,24,20,73,1
2022-01-31 12:21:31.226721,-34.617,-169.847,32.9,31.5,1015.0,28.3,18.4,-10.6,-15.5,360.0,360.0,28.0,0.0,0.0,-0.1,24,25,21,74,1
2022-01-31 12:21:36.345539,-34.835,-169.567,32.9,31.6,1015.1,28.3,18.2,-10.7,-15.7,360.0,360.0,28.0,0.0,0.0,-0.0,23,25,21,73,1
2022-01-31 12:21:41.468972,-35.051,-169.284,32.9,31.6,1015.0,28.4,18.3,-10.7,-16.1,360.0,360.0,28.0,0.0,0.0,0.0,23,24,21,73,1
2022-01-31 12:21:46.584001,-35.267,-169.001,32.9,31.5,1015.0,28.5,18.3,-10.8,-16.6,360.0,360.0,29.0,0.0,0.0,0.0,23,24,21,73,1
2022-01-31 12:21:51.696017,-35.482,-168.716,32.9,31.9,1015.0,28.6,18.3,-10.5,-16.8,360.0,360.0,29.0,0.0,0.0,-0.0,23,24,21,73,1
2022-01-31 12:21:56.808110,-35.696,-168.429,32.9,31.6,1015.1,28.6,18.5,-10.5,-17.1,360.0,360.0,29.0,0.0,0.0,-0.0,23,25,21,74,1
2022-01-31 12:22:01.932658,-35.91,-168.141,32.9,31.5,1015.1,28.6,18.6,-10.4,-17.2,360.0,360.0,29.0,0.0,0.0,-0.1,24,25,21,74,1
2022-01-31 12:22:07.056916,-36.123,-167.85,33.0,31.5,1015.1,28.7,18.6,-10.4,-17.2,360.0,360.0,29.0,0.0,0.0,-0.0,23,25,21,74,1
2022-01-31 12:22:12.181097,-36.335,-167.558,32.9,31.6,1015.0,28.7,18.6,-10.3,-17.8,360.0,360.0,29.0,0.0,0.0,-0.0,23,24,21,73,1
2022-01-31 12:22:17.299966,-36.546,-167.264,32.8,31.4,1015.0,28.7,18.3,-10.1,-17.6,360.0,360.0,29.0,0.0,0.0,0.0,24,25,21,74,1
2022-01-31 12:22:22.410544,-36.756,-166.969,32.8,31.4,1015.1,28.7,17.7,-10.1,-17.5,360.0,360.0,29.0,0.0,0.0,0.1,23,25,21,73,1
2022-01-31 12:22:27.521082,-36.965,-166.673,32.9,31.5,1015.0,28.8,17.9,-9.9,-17.8,360.0,360.0,29.0,0.0,0.0,0.1,23,24,20,72,1
2022-01-31 12:22:32.641080,-37.173,-166.374,32.9,31.6,1015.1,28.8,17.8,-10.0,-18.3,360.0,360.0,29.0,0.0,0.0,0.1,23,24,21,73,1
2022-01-31 12:22:37.756778,-37.381,-166.074,32.9,31.7,1015.0,28.8,18.1,-10.0,-18.6,360.0,360.0,29.0,0.0,0.0,-0.1,23,25,21,73,1
2022-01-31 12:22:42.871086,-37.587,-165.772,32.9,31.6,1015.0,28.8,18.2,-10.0,-18.8,360.0,360.0,29.0,0.0,0.0,0.0,23,25,21,73,1
2022-01-31 12:22:47.981097,-37.793,-165.468,33.0,31.7,1015.1,28.8,18.2,-9.9,-19.3,360.0,360.0,29.0,0.0,0.0,-0.0,24,25,21,75,1
2022-01-31 12:22:53.094105,-37.997,-165.162,32.9,31.5,1015.1,28.8,18.2,-9.9,-19.4,360.0,360.0,29.0,0.0,0.0,-0.0,23,24,21,73,1
2022-01-31 12:22:58.201129,-38.201,-164.855,32.9,31.2,1015.1,28.8,18.1,-10.2,-19.3,360.0,360.0,29.0,0.0,0.0,-0.0,23,25,21,73,1
2022-01-31 12:23:03.312495,-38.404,-164.546,33.0,31.4,1015.0,28.8,18.1,-10.1,-19.6,360.0,360.0,29.0,0.0,0.0,0.0,23,24,21,73,1
2022-01-31 12:23:08.441080,-38.606,-164.234,32.9,31.5,1015.1,28.8,18.0,-10.2,-19.8,360.0,360.0,29.0,0.0,0.0,-0.0,24,25,21,75,1
2022-01-31 12:23:13.556308,-38.807,-163.922,32.9,31.5,1015.1,28.8,18.0,-10.0,-19.7,360.0,360.0,29.0,0.0,0.0,0.0,23,24,21,74,1
2022-01-31 12:23:18.671098,-39.007,-163.607,33.0,31.3,1015.1,28.9,18.1,-10.0,-19.5,360.0,360.0,29.0,0.0,0.0,-0.0,23,25,21,73,1
2022-01-31 12:23:23.790912,-39.206,-163.29,32.8,30.8,1015.0,28.9,18.5,-10.1,-20.1,360.0,360.0,29.0,0.0,0.0,-0.0,23,24,21,73,1
2022-01-31 12:23:28.908955,-39.405,-162.971,33.0,31.3,1015.0,28.8,18.5,-9.9,-20.4,360.0,360.0,29.0,0.0,0.0,-0.0,23,24,21,73,1
2022-01-31 12:23:34.019681,-39.601,-162.651,33.0,31.4,1015.0,28.8,18.9,-9.9,-20.6,360.0,360.0,29.0,0.0,0.0,-0.0,23,24,21,73,1
2022-01-31 12:23:39.131084,-39.797,-162.328,32.9,31.7,1015.0,28.8,19.0,-10.0,-20.9,360.0,360.0,29.0,0.0,0.0,-0.0,23,24,21,73,1
2022-01-31 12:23:44.249811,-39.992,-162.004,32.9,31.4,1015.1,28.7,18.8,-10.0,-21.5,360.0,360.0,29.0,0.0,0.0,-0.0,24,25,21,75,1
2022-01-31 12:23:49.371081,-40.187,-161.677,32.9,31.3,1015.1,28.7,18.8,-10.1,-21.3,360.0,360.0,29.0,0.0,0.0,0.0,24,25,21,74,1
2022-01-31 12:23:54.489607,-40.38,-161.348,33.0,30.5,1015.0,28.7,18.7,-9.9,-21.4,360.0,360.0,29.0,0.0,0.0,-0.0,24,25,21,74,1
2022-01-31 12:23:59.611081,-40.572,-161.018,33.0,31.3,1015.0,28.7,18.8,-9.6,-21.7,360.0,360.0,29.0,0.0,0.0,-0.0,23,24,21,73,1
2022-01-31 12:24:04.729717,-40.762,-160.685,33.0,31.5,1015.0,28.6,18.9,-10.0,-21.8,360.0,360.0,29.0,0.0,0.0,0.0,23,24,21,73,1
2022-01-31 12:24:09.848790,-40.952,-160.35,33.0,31.5,1015.0,28.6,19.0,-9.6,-21.7,360.0,360.0,29.0,0.0,0.0,-0.0,24,25,21,74,1
2022-01-31 12:24:14.961084,-41.141,-160.014,33.0,31.5,1015.0,28.5,19.0,-9.7,-22.2,360.0,360.0,28.0,0.0,0.0,0.0,23,25,21,74,1
2022-01-31 12:24:20.079516,-41.328,-159.676,33.0,31.6,1015.1,28.4,19.2,-9.3,-21.8,360.0,360.0,28.0,0.0,0.0,-0.0,23,24,21,73,1
2022-01-31 12:24:25.191082,-41.514,-159.335,33.0,30.3,1015.0,28.3,19.2,-9.3,-22.3,360.0,360.0,28.0,0.0,0.0,-0.0,24,25,21,74,1
2022-01-31 12:24:30.306937,-41.699,-158.993,33.0,31.3,1015.0,28.2,19.1,-9.4,-22.4,360.0,360.0,28.0,0.0,0.0,-0.1,24,25,21,74,1
2022-01-31 12:24:35.416297,-41.883,-158.648,33.0,31.5,1015.0,28.2,19.1,-9.6,-22.9,360.0,360.0,28.0,0.0,0.0,0.1,23,24,20,73,1
2022-01-31 12:24:40.540088,-42.066,-158.301,33.0,31.4,1015.0,28.1,18.9,-9.9,-23.5,360.0,360.0,28.0,0.0,0.0,-0.0,24,25,21,75,1
2022-01-31 12:24:45.661077,-42.248,-157.952,33.0,31.4,1015.0,28.1,19.0,-9.5,-23.5,360.0,360.0,28.0,0.0,0.0,-0.0,24,25,21,74,1
2022-01-31 12:24:50.777378,-42.428,-157.601,33.0,31.4,1015.0,28.0,19.2,-9.5,-23.6,360.0,360.0,28.0,0.0,0.0,-0.0,24,25,21,74,1
2022-01-31 12:24:55.896503,-42.608,-157.248,33.0,31.5,1015.0,28.0,19.4,-9.5,-24.0,360.0,360.0,28.0,0.0,0.0,-0.1,23,24,21,73,1
2022-01-31 12:25:01.020435,-42.786,-156.892,32.9,31.3,1015.0,27.9,19.2,-9.3,-24.2,360.0,360.0,28.0,0.0,0.0,-0.0,24,25,21,73,1
2022-01-31 12:25:06.143232,-42.963,-156.534,33.1,31.4,1015.0,27.8,19.1,-9.3,-23.9,360.0,360.0,28.0,0.0,0.0,0.0,24,25,21,74,1
2022-01-31 12:25:11.254165,-43.138,-156.175,33.1,31.4,1015.0,27.7,19.0,-9.2,-23.6,360.0,360.0,28.0,0.0,0.0,0.0,23,24,21,73,1
2022-01-31 12:25:16.366030,-43.312,-155.813,32.9,31.4,1015.0,27.7,18.9,-9.1,-24.0,360.0,360.0,28.0,0.0,0.0,0.0,23,24,21,73,1
2022-01-31 12:25:21.478143,-43.484,-155.45,33.0,31.5,1015.0,27.6,18.9,-9.0,-24.1,360.0,360.0,28.0,0.0,0.0,0.1,23,24,21,73,1
2022-01-31 12:25:26.589774,-43.656,-155.084,33.0,31.4,1015.0,27.5,18.7,-8.9,-24.5,360.0,360.0,27.0,0.0,0.0,0.1,23,24,21,73,1
2022-01-31 12:25:31.705877,-43.826,-154.716,32.9,31.4,1015.0,27.4,18.5,-8.9,-24.7,360.0,360.0,27.0,0.0,0.0,-0.0,23,25,21,73,1
2022-01-31 12:25:36.825413,-43.995,-154.345,33.0,31.5,1015.0,27.4,18.7,-9.0,-24.9,360.0,360.0,27.0,0.0,0.0,-0.0,24,25,21,74,1
2022-01-31 12:25:41.936385,-44.162,-153.973,33.1,31.6,1015.0,27.3,18.9,-9.1,-24.5,360.0,360.0,27.0,0.0,0.0,-0.0,23,25,21,73,1
2022-01-31 12:25:47.047987,-44.328,-153.598,33.1,31.2,1015.0,27.2,19.2,-8.7,-25.0,360.0,360.0,27.0,0.0,0.0,-0.0,23,24,21,73,1
2022-01-31 12:25:52.160825,-44.493,-153.221,32.9,31.3,1015.0,27.1,19.2,-8.5,-25.1,360.0,360.0,27.0,0.0,0.0,-0.0,23,25,21,73,1
2022-01-31 12:25:57.272795,-44.656,-152.842,33.0,31.6,1015.0,27.0,19.1,-8.4,-25.5,360.0,360.0,27.0,0.0,0.0,-0.0,23,24,20,73,1
2022-01-31 12:26:02.393412,-44.818,-152.46,32.9,31.4,1015.0,26.9,19.3,-8.4,-25.2,360.0,360.0,27.0,0.0,0.0,-0.0,24,25,21,74,1
2022-01-31 12:26:07.510981,-44.979,-152.076,33.0,31.3,1015.0,26.7,19.3,-8.4,-25.5,360.0,360.0,27.0,0.0,0.0,-0.1,23,24,21,73,1
2022-01-31 12:26:12.627379,-45.138,-151.69,33.1,31.3,1015.0,26.6,19.1,-8.5,-25.8,360.0,360.0,27.0,0.0,0.0,-0.0,23,24,21,73,1
2022-01-31 12:26:17.739384,-45.295,-151.302,33.0,31.6,1015.0,26.5,19.5,-8.2,-25.9,360.0,360.0,26.0,0.0,0.0,-0.0,23,25,21,73,1
2022-01-31 12:26:22.851775,-45.451,-150.912,32.9,31.3,1015.0,26.4,19.5,-8.4,-25.9,360.0,360.0,26.0,0.0,0.0,-0.0,23,25,21,73,1
2022-01-31 12:26:27.964152,-45.606,-150.519,32.9,31.6,1015.0,26.2,19.4,-8.3,-26.4,360.0,360.0,26.0,0.0,0.0,-0.1,23,24,21,73,1
2022-01-31 12:26:33.087930,-45.759,-150.123,33.0,31.5,1015.0,26.1,19.4,-8.2,-26.5,360.0,360.0,26.0,0.0,0.0,0.0,23,25,21,73,1
2022-01-31 12:26:38.207887,-45.911,-149.726,33.1,31.3,1015.0,26.0,19.8,-8.3,-26.4,360.0,360.0,26.0,0.0,0.0,-0.0,23,24,20,74,1
2022-01-31 12:26:43.330824,-46.061,-149.325,33.1,31.3,1015.0,25.9,19.8,-8.1,-26.3,360.0,360.0,26.0,0.0,0.0,-0.0,23,24,20,73,1
2022-01-31 12:26:48.443750,-46.209,-148.924,33.1,31.4,1015.0,25.7,19.9,-8.1,-26.7,360.0,360.0,26.0,0.0,0.0,-0.1,23,24,20,73,1
2022-01-31 12:26:53.569001,-46.356,-148.519,33.1,31.5,1015.0,25.6,20.0,-8.2,-26.8,360.0,360.0,26.0,0.0,0.0,-0.1,24,25,21,74,1
2022-01-31 12:26:58.689597,-46.502,-148.112,33.1,31.3,1015.0,25.5,20.2,-8.0,-27.3,360.0,360.0,25.0,0.0,0.0,-0.0,23,24,21,73,1
2022-01-31 12:27:03.808613,-46.645,-147.703,33.1,31.0,1015.0,25.3,20.1,-7.9,-27.0,360.0,360.0,25.0,0.0,0.0,-0.0,23,24,21,73,1
2022-01-31 12:27:08.931856,-46.787,-147.291,33.1,31.4,1015.0,25.2,20.0,-7.8,-26.7,360.0,360.0,25.0,0.0,0.0,-0.0,23,24,21,73,1
2022-01-31 12:27:14.042386,-46.928,-146.879,33.2,31.4,1015.0,25.0,19.8,-7.6,-27.3,360.0,360.0,25.0,0.0,0.0,0.0,24,25,21,74,1
2022-01-31 12:27:19.153626,-47.066,-146.464,33.1,31.7,1015.0,24.9,19.5,-7.3,-27.3,360.0,360.0,25.0,0.0,0.0,0.0,24,25,21,73,1
2022-01-31 12:27:24.266331,-47.203,-146.046,33.1,31.4,1015.0,24.7,19.6,-7.1,-27.6,360.0,360.0,25.0,0.0,0.0,-0.0,23,24,21,73,1
2022-01-31 12:27:29.379784,-47.338,-145.626,33.1,31.5,1015.0,24.5,19.8,-7.5,-27.7,360.0,360.0,24.0,0.0,0.0,-0.0,23,24,21,73,1
2022-01-31 12:27:34.501136,-47.472,-145.204,33.1,31.4,1015.0,24.4,20.0,-7.6,-27.8,360.0,360.0,24.0,0.0,0.0,-0.0,23,24,21,73,1
2022-01-31 12:27:39.611080,-47.604,-144.78,33.0,31.3,1015.0,24.2,20.2,-7.9,-27.9,360.0,360.0,24.0,0.0,0.0,-0.0,23,24,21,73,1
2022-01-31 12:27:44.729750,-47.734,-144.353,33.0,31.3,1015.0,24.1,20.1,-7.6,-28.0,360.0,360.0,24.0,0.0,0.0,-0.0,24,25,21,74,1
2022-01-31 12:27:49.841116,-47.862,-143.924,33.1,31.5,1015.0,24.0,19.9,-7.2,-27.6,360.0,360.0,24.0,0.0,0.0,0.0,24,24,21,74,1
2022-01-31 12:27:54.952845,-47.989,-143.493,33.0,32.2,1015.0,23.8,19.9,-6.9,-27.8,360.0,360.0,24.0,0.0,0.0,0.0,24,25,21,74,1
2022-01-31 12:28:00.073761,-48.114,-143.06,33.0,31.6,1015.0,23.6,20.0,-7.2,-28.2,360.0,360.0,24.0,0.0,0.0,0.0,23,24,21,73,1
2022-01-31 12:28:05.189962,-48.237,-142.624,33.1,31.4,1015.0,23.5,20.1,-7.2,-28.5,360.0,360.0,23.0,0.0,0.0,-0.0,23,24,21,73,1
2022-01-31 12:28:10.310133,-48.358,-142.186,33.1,31.4,1015.0,23.4,20.2,-7.2,-28.6,360.0,360.0,23.0,0.0,0.0,-0.1,24,25,21,75,1
2022-01-31 12:28:15.429783,-48.478,-141.746,33.0,31.3,1015.0,23.2,20.1,-7.1,-29.0,360.0,360.0,23.0,0.0,0.0,-0.0,23,25,21,73,1
2022-01-31 12:28:20.549458,-48.595,-141.304,33.0,31.3,1015.0,23.0,20.3,-7.0,-29.1,360.0,360.0,23.0,0.0,0.0,-0.0,23,24,21,73,1
2022-01-31 12:28:25.661557,-48.711,-140.86,32.9,31.3,1015.0,22.9,20.2,-7.0,-29.1,360.0,360.0,23.0,0.0,0.0,0.1,23,25,21,73,1
2022-01-31 12:28:30.786001,-48.825,-140.413,33.0,31.2,1015.0,22.7,20.4,-6.8,-29.3,360.0,360.0,23.0,0.0,0.0,0.1,23,24,21,73,0
2022-01-31 12:28:35.909831,-48.937,-139.964,33.1,31.4,1015.0,22.6,20.5,-6.6,-29.3,360.0,360.0,22.0,0.0,0.0,-0.0,24,24,21,74,1
2022-01-31 12:28:41.034376,-49.047,-139.513,33.0,31.5,1015.0,22.4,20.4,-6.8,-29.3,360.0,360.0,22.0,0.0,0.0,0.0,23,25,21,73,1
2022-01-31 12:28:46.158395,-49.155,-139.06,33.0,31.5,1015.0,22.2,20.3,-6.7,-29.2,360.0,360.0,22.0,0.0,0.0,-0.0,24,25,21,74,1
2022-01-31 12:28:51.283123,-49.261,-138.604,33.1,31.6,1015.0,22.1,20.6,-6.7,-29.4,360.0,360.0,22.0,0.0,0.0,0.1,23,24,21,73,1
2022-01-31 12:28:56.406308,-49.365,-138.147,33.0,31.0,1015.0,21.9,20.9,-6.8,-29.8,360.0,360.0,22.0,0.0,0.0,-0.0,24,25,21,74,1
2022-01-31 12:29:01.523188,-49.467,-137.689,33.2,31.3,1015.0,21.8,21.1,-6.7,-30.1,360.0,360.0,22.0,0.0,0.0,-0.0,23,25,21,73,1
2022-01-31 12:29:06.647202,-49.567,-137.227,33.1,31.5,1015.0,21.6,21.3,-6.7,-30.3,360.0,360.0,22.0,0.0,0.0,-0.0,24,24,21,74,1
2022-01-31 12:29:11.767246,-49.666,-136.765,33.1,31.3,1015.0,21.4,21.4,-6.5,-30.4,360.0,360.0,21.0,0.0,0.0,-0.1,23,25,21,74,1
2022-01-31 12:29:16.886743,-49.762,-136.3,33.1,31.3,1015.0,21.3,20.9,-6.6,-30.4,360.0,360.0,21.0,0.0,0.0,-0.0,23,25,21,74,1
2022-01-31 12:29:22.001513,-49.856,-135.834,33.0,31.4,1015.0,21.1,21.1,-6.4,-30.5,360.0,360.0,21.0,0.0,0.0,-0.0,23,24,20,73,1
2022-01-31 12:29:27.112704,-49.947,-135.366,33.2,31.4,1015.0,21.0,21.0,-6.2,-30.7,360.0,360.0,21.0,0.0,0.0,0.0,23,24,21,73,1
2022-01-31 12:29:32.224673,-50.037,-134.896,33.1,31.3,1015.0,20.8,21.4,-6.1,-31.1,360.0,360.0,21.0,0.0,0.0,-0.0,23,25,21,73,1
2022-01-31 12:29:37.336718,-50.125,-134.425,33.1,31.3,1015.0,20.6,21.7,-6.0,-31.0,360.0,360.0,20.0,0.0,0.0,-0.0,23,25,21,74,1
2022-01-31 12:29:42.453328,-50.21,-133.951,33.2,31.3,1015.0,20.4,21.6,-5.6,-30.4,360.0,360.0,20.0,0.0,0.0,-0.1,24,25,21,74,1
2022-01-31 12:29:47.573280,-50.294,-133.476,33.0,31.2,1015.0,20.1,21.5,-5.3,-30.6,360.0,360.0,20.0,0.0,0.0,0.0,23,24,21,73,1
2022-01-31 12:29:52.684232,-50.375,-132.999,33.1,31.2,1015.0,19.9,21.7,-5.2,-30.5,360.0,360.0,20.0,0.0,0.0,0.0,23,24,21,73,1
2022-01-31 12:29:57.795323,-50.455,-132.521,33.2,31.3,1015.0,19.7,21.6,-5.5,-31.0,360.0,360.0,20.0,0.0,0.0,-0.0,23,25,21,74,1
2022-01-31 12:30:02.906913,-50.532,-132.041,33.0,31.3,1015.0,19.5,21.6,-5.5,-31.1,360.0,360.0,19.0,0.0,0.0,-0.0,23,24,21,73,1
2022-01-31 12:30:08.020232,-50.606,-131.559,33.0,31.3,1015.0,19.3,21.7,-5.4,-31.1,360.0,360.0,19.0,0.0,0.0,0.1,23,25,21,73,1
2022-01-31 12:30:13.145321,-50.679,-131.075,33.1,31.2,1015.0,19.0,22.0,-5.3,-31.3,360.0,360.0,19.0,0.0,0.0,-0.1,23,24,20,73,1
2022-01-31 12:30:18.270661,-50.75,-130.589,33.0,31.1,1015.0,18.8,21.9,-5.3,-31.0,360.0,360.0,19.0,0.0,0.0,0.0,23,24,21,73,1
2022-01-31 12:30:23.383244,-50.818,-130.103,33.1,30.6,1015.0,18.6,22.0,-5.0,-30.8,360.0,360.0,19.0,0.0,0.0,-0.0,23,24,21,73,1
2022-01-31 12:30:28.503437,-50.885,-129.614,33.1,31.4,1015.0,18.4,22.1,-5.0,-31.0,360.0,360.0,18.0,0.0,0.0,-0.0,23,25,21,73,1
2022-01-31 12:30:33.613915,-50.948,-129.125,33.1,31.0,1015.0,18.2,21.9,-4.9,-30.9,360.0,360.0,18.0,0.0,0.0,0.0,24,25,21,74,1
2022-01-31 12:30:38.722624,-51.01,-128.635,33.1,31.4,1015.0,18.0,21.9,-4.9,-31.2,360.0,360.0,18.0,0.0,0.0,-0.0,23,24,21,73,1
2022-01-31 12:30:43.834363,-51.069,-128.143,33.0,31.1,1015.0,17.8,22.0,-5.1,-31.1,360.0,360.0,18.0,0.0,0.0,-0.0,23,25,21,73,1
2022-01-31 12:30:48.948723,-51.127,-127.65,33.1,31.1,1015.0,17.6,22.2,-5.2,-31.1,360.0,360.0,18.0,0.0,0.0,-0.0,24,25,21,75,1
2022-01-31 12:30:54.061126,-51.181,-127.156,33.1,31.3,1015.0,17.4,22.3,-4.3,-31.5,360.0,360.0,17.0,0.0,0.0,-0.0,23,24,21,73,1
2022-01-31 12:30:59.171869,-51.234,-126.66,33.1,31.3,1015.0,17.1,22.3,-4.3,-31.6,360.0,360.0,17.0,0.0,0.0,-0.0,24,25,21,75,1
2022-01-31 12:31:04.295024,-51.284,-126.163,33.2,31.3,1015.0,16.9,21.9,-4.6,-31.4,360.0,360.0,17.0,0.0,0.0,0.0,23,24,21,73,1
2022-01-31 12:31:09.418345,-51.333,-125.664,33.2,31.1,1015.0,16.7,22.4,-3.9,-31.5,360.0,360.0,17.0,0.0,0.0,-0.1,23,24,21,74,1
2022-01-31 12:31:14.533477,-51.378,-125.165,33.1,31.1,1014.9,16.4,22.7,-4.4,-31.9,360.0,360.0,16.0,0.0,0.0,-0.0,24,25,21,75,1
2022-01-31 12:31:19.645550,-51.422,-124.665,33.1,31.2,1015.0,16.2,22.6,-4.2,-31.9,360.0,360.0,16.0,0.0,0.0,-0.1,23,25,21,74,1
2022-01-31 12:31:24.758225,-51.463,-124.164,33.1,31.1,1015.0,16.0,22.7,-3.8,-32.0,360.0,360.0,16.0,0.0,0.0,-0.0,23,25,21,73,1
2022-01-31 12:31:29.885412,-51.502,-123.661,33.1,31.8,1014.9,15.7,23.0,-4.0,-31.8,360.0,360.0,16.0,0.0,0.0,-0.0,23,24,21,73,1
2022-01-31 12:31:34.955387,-51.538,-123.162,33.1,31.1,1014.9,15.5,23.0,-4.2,-32.1,360.0,360.0,15.0,0.0,0.0,-0.0,23,25,21,73,1
2022-01-31 12:31:40.067119,-51.572,-122.659,33.1,31.2,1014.9,15.3,22.7,-3.8,-32.4,360.0,360.0,15.0,0.0,0.0,0.0,23,24,21,73,1
2022-01-31 12:31:45.178881,-51.604,-122.155,33.1,31.1,1014.9,15.1,22.7,-3.8,-32.6,360.0,360.0,15.0,0.0,0.0,0.1,23,25,21,74,1
2022-01-31 12:31:50.296626,-51.633,-121.65,33.1,31.1,1015.0,14.9,23.2,-4.0,-32.4,360.0,360.0,15.0,0.0,0.0,-0.1,24,25,21,75,1
2022-01-31 12:31:55.421372,-51.66,-121.143,33.1,31.0,1015.0,14.7,22.9,-3.9,-32.5,360.0,360.0,15.0,0.0,0.0,-0.0,23,25,21,73,1
2022-01-31 12:32:00.534350,-51.685,-120.637,33.1,31.3,1015.0,14.5,23.1,-3.7,-32.3,360.0,360.0,14.0,0.0,0.0,0.0,23,24,21,73,1
2022-01-31 12:32:05.648356,-51.707,-120.13,33.0,31.1,1015.0,14.3,23.2,-3.4,-32.5,360.0,360.0,14.0,0.0,0.0,-0.0,23,25,21,74,1
2022-01-31 12:32:10.768428,-51.727,-119.622,33.2,31.0,1014.9,14.0,23.3,-2.8,-32.6,360.0,360.0,14.0,0.0,0.0,-0.0,23,24,21,73,1
2022-01-31 12:32:15.883294,-51.745,-119.114,33.2,31.2,1015.0,13.7,23.5,-2.7,-32.3,360.0,360.0,14.0,0.0,0.0,-0.0,23,24,21,73,1
2022-01-31 12:32:21.001944,-51.76,-118.606,33.1,31.3,1015.0,13.5,23.5,-2.8,-31.9,360.0,360.0,13.0,0.0,0.0,0.0,24,25,21,74,1
2022-01-31 12:32:26.115036,-51.772,-118.097,33.1,31.3,1015.0,13.2,23.6,-2.9,-32.4,360.0,360.0,13.0,0.0,0.0,0.0,23,24,21,73,1
2022-01-31 12:32:31.226100,-51.783,-117.589,33.2,31.0,1014.9,13.0,23.7,-2.7,-32.6,360.0,360.0,13.0,0.0,0.0,-0.0,23,24,21,73,1
2022-01-31 12:32:36.331075,-51.791,-117.081,33.1,31.2,1014.9,12.7,24.0,-2.8,-32.4,360.0,360.0,13.0,0.0,0.0,-0.0,23,24,21,73,1
2022-01-31 12:32:41.453220,-51.796,-116.571,33.2,31.0,1014.9,12.5,24.0,-2.7,-32.6,360.0,360.0,12.0,0.0,0.0,0.0,23,24,21,73,1
2022-01-31 12:32:46.568631,-51.8,-116.062,33.1,31.0,1015.0,12.3,24.0,-2.8,-32.4,360.0,360.0,12.0,0.0,0.0,-0.0,23,24,20,72,1
2022-01-31 12:32:51.680171,-51.801,-115.553,33.2,31.1,1014.9,12.0,24.0,-2.7,-32.7,360.0,360.0,12.0,0.0,0.0,-0.0,24,25,21,73,1
2022-01-31 12:32:56.793788,-51.799,-115.043,33.1,31.4,1014.9,11.8,24.4,-2.5,-32.7,360.0,360.0,12.0,0.0,0.0,0.0,24,25,21,74,1
2022-01-31 12:33:01.917828,-51.795,-114.533,33.2,31.1,1015.0,11.6,24.5,-2.4,-32.5,360.0,360.0,11.0,0.0,0.0,-0.0,23,24,21,73,1
2022-01-31 12:33:07.041432,-51.789,-114.023,33.2,31.3,1015.0,11.3,24.3,-2.3,-32.4,360.0,360.0,11.0,0.0,0.0,-0.1,23,25,21,73,1
2022-01-31 12:33:12.165207,-51.78,-113.513,33.1,31.3,1015.0,11.1,24.5,-2.1,-33.0,360.0,360.0,11.0,0.0,0.0,-0.0,24,25,21,74,1
2022-01-31 12:33:17.285455,-51.769,-113.004,33.2,31.1,1015.0,10.9,24.7,-2.1,-33.1,360.0,360.0,11.0,0.0,0.0,-0.1,23,24,20,72,1
2022-01-31 12:33:22.406211,-51.755,-112.495,33.1,31.2,1015.0,10.6,24.7,-2.0,-33.2,360.0,360.0,11.0,0.0,0.0,0.0,23,24,21,73,1
2022-01-31 12:33:27.529639,-51.739,-111.986,33.1,31.2,1014.9,10.4,24.6,-1.9,-33.1,360.0,360.0,10.0,0.0,0.0,-0.0,23,24,21,73,1
2022-01-31 12:33:32.656417,-51.721,-111.477,33.1,31.1,1014.9,10.2,24.7,-1.8,-33.2,360.0,360.0,10.0,0.0,0.0,-0.0,23,24,21,73,0
2022-01-31 12:33:37.768829,-51.7,-110.97,33.1,30.7,1014.9,9.9,24.8,-1.6,-32.7,360.0,360.0,10.0,0.0,0.0,-0.0,23,25,21,74,1
2022-01-31 12:33:42.880906,-51.677,-110.464,33.2,33.0,1014.9,9.7,24.9,-1.4,-33.1,360.0,360.0,10.0,0.0,0.0,0.1,23,25,21,74,1
2022-01-31 12:33:48.003594,-51.652,-109.957,33.2,31.3,1014.9,9.4,24.9,-1.5,-33.4,360.0,360.0,9.0,0.0,0.0,-0.0,23,24,21,73,1
2022-01-31 12:33:53.127544,-51.624,-109.45,33.1,31.2,1014.9,9.2,24.4,-1.4,-33.3,360.0,360.0,9.0,0.0,0.0,-0.0,23,24,21,73,1
2022-01-31 12:33:58.244175,-51.594,-108.945,33.2,31.4,1014.9,9.0,24.8,-1.2,-33.1,360.0,360.0,9.0,0.0,0.0,0.0,23,24,21,73,1
2022-01-31 12:34:03.357195,-51.562,-108.441,33.2,31.0,1015.0,8.7,24.9,-1.1,-33.1,360.0,360.0,9.0,0.0,0.0,-0.0,23,24,21,73,1
2022-01-31 12:34:08.461069,-51.527,-107.939,33.1,31.1,1015.0,8.5,25.2,-1.1,-33.2,360.0,360.0,8.0,0.0,0.0,-0.0,23,24,20,73,1
2022-01-31 12:34:13.576700,-51.49,-107.436,33.1,31.0,1014.9,8.3,25.1,-1.0,-32.7,360.0,360.0,8.0,0.0,0.0,0.0,23,25,21,73,1
2022-01-31 12:34:18.688001,-51.45,-106.935,33.2,31.1,1014.9,8.0,25.1,-1.1,-33.3,360.0,360.0,8.0,0.0,0.0,0.0,24,25,21,74,1
2022-01-31 12:34:23.796966,-51.408,-106.435,33.2,31.0,1014.9,7.8,25.3,-0.9,-33.4,360.0,360.0,8.0,0.0,0.0,0.1,23,25,21,74,1
2022-01-31 12:34:28.921077,-51.364,-105.934,33.2,31.1,1015.0,7.6,25.4,-0.8,-33.5,360.0,360.0,7.0,0.0,0.0,-0.0,24,25,21,75,1
2022-01-31 12:34:34.038796,-51.318,-105.435,33.1,31.1,1014.9,7.4,25.4,-0.8,-33.3,360.0,360.0,7.0,0.0,0.0,-0.0,23,24,21,73,1
2022-01-31 12:34:39.149775,-51.269,-104.938,33.2,30.9,1014.9,7.1,25.6,-0.7,-33.2,360.0,360.0,7.0,0.0,0.0,0.0,23,24,21,73,1
2022-01-31 12:34:44.262338,-51.218,-104.441,33.2,31.4,1014.9,6.9,25.8,-0.5,-33.5,360.0,360.0,7.0,0.0,0.0,0.1,23,25,21,74,1
2022-01-31 12:34:49.375337,-51.165,-103.946,33.2,30.9,1014.9,6.7,25.6,-0.1,-33.5,360.0,360.0,7.0,0.0,0.0,0.1,23,24,21,73,1
2022-01-31 12:34:54.501127,-51.109,-103.451,33.2,31.2,1014.9,6.4,25.7,-0.0,-33.2,360.0,360.0,6.0,0.0,0.0,0.1,24,25,21,74,1
2022-01-31 12:34:59.624392,-51.051,-102.957,33.2,30.8,1014.9,6.2,25.8,-0.0,-32.9,360.0,360.0,6.0,0.0,0.0,-0.0,23,24,21,73,1
2022-01-31 12:35:04.748497,-50.991,-102.465,33.1,31.0,1014.9,5.9,25.8,0.4,-32.9,360.0,360.0,6.0,0.0,0.0,-0.0,23,24,21,73,1
2022-01-31 12:35:09.866872,-50.928,-101.974,33.2,30.9,1014.9,5.7,26.1,0.2,-33.8,360.0,360.0,6.0,0.0,0.0,0.0,23,24,21,73,1
2022-01-31 12:35:14.987380,-50.864,-101.484,33.1,31.4,1014.9,5.4,26.2,0.3,-34.0,360.0,360.0,5.0,0.0,0.0,-0.0,23,25,21,73,1
2022-01-31 12:35:20.097732,-50.797,-100.997,33.1,31.2,1014.9,5.2,26.0,0.6,-33.7,360.0,360.0,5.0,0.0,0.0,0.1,23,24,21,73,1
2022-01-31 12:35:25.211082,-50.728,-100.511,33.2,31.0,1014.9,4.9,26.2,0.7,-33.3,360.0,360.0,5.0,0.0,0.0,0.0,24,25,21,75,1
2022-01-31 12:35:30.321082,-50.657,-100.027,33.1,31.1,1014.9,4.7,26.5,0.5,-33.1,360.0,360.0,5.0,0.0,0.0,-0.1,24,25,21,75,1
2022-01-31 12:35:35.431082,-50.583,-99.545,33.2,31.1,1014.9,4.5,26.6,0.6,-33.3,360.0,360.0,4.0,0.0,0.0,-0.0,24,25,21,73,1
2022-01-31 12:35:40.549733,-50.508,-99.063,33.2,31.0,1014.9,4.2,26.6,0.7,-33.0,360.0,360.0,4.0,0.0,0.0,0.0,23,24,21,73,1
2022-01-31 12:35:45.660665,-50.43,-98.584,33.2,31.1,1014.9,4.0,26.7,0.6,-33.1,360.0,360.0,4.0,0.0,0.0,0.0,23,25,21,73,1
2022-01-31 12:35:50.769068,-50.35,-98.106,33.2,31.0,1014.9,3.8,26.5,0.6,-33.1,360.0,360.0,4.0,0.0,0.0,-0.0,23,25,21,73,1
2022-01-31 12:35:55.881079,-50.268,-97.63,33.1,30.9,1014.9,3.6,26.6,0.7,-33.1,360.0,360.0,4.0,0.0,0.0,-0.0,24,25,21,74,1
2022-01-31 12:36:00.996383,-50.184,-97.155,33.2,31.1,1014.9,3.4,26.5,0.7,-33.4,360.0,360.0,3.0,0.0,0.0,-0.0,23,24,21,73,1
2022-01-31 12:36:06.111103,-50.098,-96.682,33.2,31.3,1015.0,3.2,26.7,0.9,-33.5,360.0,360.0,3.0,0.0,0.0,0.1,23,24,21,73,1
2022-01-31 12:36:11.221786,-50.009,-96.212,33.2,31.2,1014.9,3.0,26.9,1.2,-33.4,360.0,360.0,3.0,0.0,0.0,0.1,24,25,21,75,1
2022-01-31 12:36:16.344661,-49.919,-95.742,33.2,30.9,1014.9,2.8,26.9,1.4,-33.5,360.0,360.0,3.0,0.0,0.0,-0.0,24,25,21,74,1
2022-01-31 12:36:21.463558,-49.826,-95.274,33.2,31.1,1014.9,2.6,27.0,1.3,-33.0,360.0,360.0,2.0,0.0,0.0,-0.0,23,24,21,73,1
2022-01-31 12:36:26.571985,-49.732,-94.809,33.2,31.1,1014.9,2.4,27.3,1.3,-33.1,360.0,360.0,2.0,0.0,0.0,0.0,23,24,21,73,1
2022-01-31 12:36:31.684574,-49.635,-94.345,33.2,29.8,1014.9,2.1,27.5,1.6,-33.0,360.0,360.0,2.0,0.0,0.0,-0.0,23,24,21,73,1
2022-01-31 12:36:36.801079,-49.536,-93.883,33.2,30.9,1014.9,1.9,27.5,1.7,-33.3,360.0,360.0,2.0,0.0,0.0,0.1,24,25,21,74,1
2022-01-31 12:36:41.921085,-49.436,-93.423,33.2,31.1,1014.9,1.7,27.7,1.5,-33.5,360.0,360.0,2.0,0.0,0.0,0.1,23,24,21,73,1
2022-01-31 12:36:47.038728,-49.333,-92.965,33.2,31.2,1014.9,1.5,27.8,1.6,-32.7,360.0,360.0,1.0,0.0,0.0,0.0,24,25,21,74,1
2022-01-31 12:36:52.149299,-49.228,-92.51,33.2,30.9,1014.9,1.3,27.9,2.0,-32.4,360.0,360.0,1.0,0.0,0.0,-0.0,23,25,21,73,1
2022-01-31 12:36:57.271084,-49.122,-92.055,33.2,31.3,1014.9,1.1,28.0,1.6,-32.0,360.0,360.0,1.0,0.0,0.0,-0.0,23,24,21,73,1
2022-01-31 12:37:02.381080,-49.013,-91.604,33.2,31.0,1015.0,1.0,28.0,2.1,-32.4,360.0,360.0,1.0,0.0,0.0,-0.1,23,24,21,73,1
2022-01-31 12:37:07.501077,-48.903,-91.154,33.2,31.2,1014.9,0.7,28.0,2.3,-32.5,360.0,360.0,1.0,0.0,0.0,-0.0,24,25,21,74,1
2022-01-31 12:37:12.619603,-48.79,-90.706,33.2,31.2,1014.9,0.5,27.8,2.7,-32.4,360.0,360.0,0.0,0.0,0.0,-0.0,23,24,21,73,1
2022-01-31 12:37:17.738040,-48.676,-90.26,33.2,31.1,1015.0,0.3,28.0,3.2,-33.0,360.0,360.0,0.0,0.0,0.0,0.0,23,24,21,73,1
2022-01-31 12:37:22.849882,-48.56,-89.817,33.1,31.3,1014.9,0.0,28.2,2.9,-33.0,360.0,360.0,360.0,0.0,0.0,0.1,23,24,21,73,1
2022-01-31 12:37:27.964000,-48.442,-89.375,33.4,31.1,1014.9,359.8,28.2,3.0,-32.6,360.0,360.0,360.0,0.0,0.0,0.0,24,25,21,74,1
2022-01-31 12:37:33.083667,-48.322,-88.936,33.3,31.0,1015.0,359.5,28.2,3.4,-32.6,360.0,360.0,359.0,0.0,0.0,-0.1,24,25,21,73,1
2022-01-31 12:37:38.206676,-48.2,-88.498,33.2,31.0,1015.0,359.3,28.2,3.4,-32.3,360.0,360.0,359.0,0.0,0.0,0.0,23,25,21,73,1
2022-01-31 12:37:43.325552,-48.076,-88.063,33.2,31.1,1014.9,359.0,28.3,3.5,-32.4,360.0,360.0,359.0,0.0,0.0,0.0,23,24,20,73,1
2022-01-31 12:37:48.436764,-47.951,-87.631,33.2,31.1,1015.0,358.8,28.0,3.4,-32.9,360.0,360.0,359.0,0.0,0.0,-0.0,23,25,21,73,1
2022-01-31 12:37:53.548557,-47.824,-87.201,33.2,31.2,1015.0,358.6,28.4,3.5,-33.0,360.0,360.0,358.0,0.0,0.0,-0.0,24,25,21,74,1
2022-01-31 12:37:58.663398,-47.695,-86.773,33.2,31.1,1014.9,358.4,28.6,3.7,-32.9,360.0,360.0,358.0,0.0,0.0,-0.1,23,25,21,73,1
2022-01-31 12:38:03.781077,-47.564,-86.346,33.2,31.2,1014.9,358.1,28.6,3.7,-32.9,360.0,360.0,358.0,0.0,0.0,-0.0,23,25,21,73,1
2022-01-31 12:38:08.891075,-47.432,-85.923,33.2,30.7,1014.9,357.9,28.5,3.5,-32.5,360.0,360.0,358.0,0.0,0.0,-0.0,23,25,21,73,1
2022-01-31 12:38:14.001077,-47.298,-85.502,33.2,30.9,1014.9,357.7,28.8,3.8,-32.6,360.0,360.0,358.0,0.0,0.0,-0.0,24,25,21,74,1
2022-01-31 12:38:19.120210,-47.162,-85.082,33.2,31.1,1014.9,357.5,29.0,4.2,-32.3,360.0,360.0,357.0,0.0,0.0,0.0,24,25,21,74,1
2022-01-31 12:38:24.231079,-47.025,-84.666,33.2,31.0,1014.9,357.3,28.9,4.5,-31.8,360.0,360.0,357.0,0.0,0.0,0.0,24,25,21,74,1
2022-01-31 12:38:29.341103,-46.885,-84.251,33.2,31.0,1014.9,357.0,28.9,4.4,-32.2,360.0,360.0,357.0,0.0,0.0,-0.0,24,25,21,74,1
2022-01-31 12:38:34.461074,-46.744,-83.838,33.2,31.2,1014.9,356.8,29.1,4.1,-32.1,360.0,360.0,357.0,0.0,0.0,-0.0,23,24,21,73,1
2022-01-31 12:38:39.579826,-46.602,-83.428,33.2,30.9,1014.9,356.6,29.0,4.1,-32.2,360.0,360.0,357.0,0.0,0.0,0.0,23,24,21,73,1
2022-01-31 12:38:44.690167,-46.458,-83.02,33.2,30.6,1014.9,356.4,29.1,4.5,-32.1,360.0,360.0,356.0,0.0,0.0,0.0,24,25,21,75,1
2022-01-31 12:38:49.801084,-46.312,-82.615,33.2,31.2,1014.9,356.2,29.2,4.7,-32.4,360.0,360.0,356.0,0.0,0.0,-0.0,23,24,21,73,1
2022-01-31 12:38:54.920490,-46.165,-82.211,33.4,31.1,1014.9,356.0,29.5,4.8,-31.9,360.0,360.0,356.0,0.0,0.0,-0.1,23,24,21,73,1
2022-01-31 12:39:00.041078,-46.016,-81.809,33.1,31.4,1014.9,355.8,29.7,4.6,-31.9,360.0,360.0,356.0,0.0,0.0,-0.0,23,25,21,73,1
2022-01-31 12:39:05.159791,-45.865,-81.41,33.3,31.1,1014.9,355.6,29.9,5.2,-31.9,360.0,360.0,356.0,0.0,0.0,-0.0,24,25,21,74,1
2022-01-31 12:39:10.283380,-45.713,-81.013,33.3,30.9,1014.9,355.4,29.8,5.3,-31.6,360.0,360.0,355.0,0.0,0.0,0.0,24,25,21,74,1
2022-01-31 12:39:15.403701,-45.559,-80.618,33.3,31.2,1014.9,355.2,29.7,5.3,-31.4,360.0,360.0,355.0,0.0,0.0,0.0,23,24,21,73,1
2022-01-31 12:39:20.523801,-45.404,-80.225,33.2,31.1,1014.9,355.0,29.9,5.2,-31.7,360.0,360.0,355.0,0.0,0.0,0.0,23,25,21,73,1
2022-01-31 12:39:25.643342,-45.248,-79.835,33.2,31.3,1014.9,354.8,30.0,5.2,-31.7,360.0,360.0,355.0,0.0,0.0,-0.0,23,24,21,74,1
2022-01-31 12:39:30.756093,-45.09,-79.448,33.2,31.1,1014.9,354.6,30.2,5.0,-31.8,360.0,360.0,355.0,0.0,0.0,-0.0,23,24,20,72,1
2022-01-31 12:39:35.881075,-44.93,-79.061,33.2,31.1,1014.9,354.5,30.5,5.2,-31.5,360.0,360.0,354.0,0.0,0.0,-0.1,23,24,21,73,1
2022-01-31 12:39:41.001077,-44.769,-78.678,33.3,30.9,1014.9,354.3,30.1,5.6,-31.3,360.0,360.0,354.0,0.0,0.0,-0.0,24,25,21,74,1
2022-01-31 12:39:46.119925,-44.606,-78.297,33.3,31.1,1014.9,354.1,30.2,5.5,-31.7,360.0,360.0,354.0,0.0,0.0,-0.0,23,25,21,73,1
2022-01-31 12:39:51.231081,-44.443,-77.918,33.4,31.1,1014.9,354.0,30.3,5.6,-31.6,360.0,360.0,354.0,0.0,0.0,0.1,23,24,21,73,1
2022-01-31 12:39:56.341072,-44.278,-77.542,33.3,30.9,1014.9,353.8,30.3,5.7,-31.4,360.0,360.0,354.0,0.0,0.0,0.0,23,24,21,75,1
2022-01-31 12:40:01.461070,-44.111,-77.168,33.2,31.0,1014.9,353.6,30.6,5.7,-31.0,360.0,360.0,354.0,0.0,0.0,-0.1,23,24,21,72,1
2022-01-31 12:40:06.581075,-43.943,-76.795,33.3,31.3,1014.9,353.4,30.8,6.1,-31.0,360.0,360.0,353.0,0.0,0.0,-0.0,23,24,20,72,1
2022-01-31 12:40:11.701080,-43.774,-76.425,33.2,30.8,1014.9,353.3,30.7,6.1,-30.5,360.0,360.0,353.0,0.0,0.0,-0.1,24,25,21,74,1
2022-01-31 12:40:16.821079,-43.603,-76.057,33.3,31.2,1014.9,353.1,30.8,6.4,-30.0,360.0,360.0,353.0,0.0,0.0,-0.1,23,25,21,73,1
2022-01-31 12:40:21.940418,-43.431,-75.692,33.3,31.0,1014.9,352.9,30.8,6.4,-30.4,360.0,360.0,353.0,0.0,0.0,0.1,23,24,21,73,1
2022-01-31 12:40:27.061079,-43.257,-75.328,33.2,31.0,1014.9,352.7,30.7,6.7,-30.2,360.0,360.0,353.0,0.0,0.0,0.1,23,24,21,73,1
2022-01-31 12:40:32.181158,-43.083,-74.967,33.3,31.1,1014.9,352.5,31.0,6.6,-30.0,360.0,360.0,352.0,0.0,0.0,-0.0,23,25,21,72,1
2022-01-31 12:40:37.298509,-42.907,-74.608,33.3,31.1,1014.9,352.3,31.0,6.6,-30.2,360.0,360.0,352.0,0.0,0.0,-0.0,23,24,21,73,1
2022-01-31 12:40:42.410289,-42.73,-74.251,33.4,31.1,1014.9,352.1,30.8,7.0,-30.0,360.0,360.0,352.0,0.0,0.0,0.0,23,24,21,73,1
2022-01-31 12:40:47.522227,-42.552,-73.897,33.3,31.2,1014.9,352.0,30.9,6.6,-30.2,360.0,360.0,352.0,0.0,0.0,-0.0,23,25,21,74,1
2022-01-31 12:40:52.634528,-42.372,-73.544,33.3,31.1,1014.9,351.8,30.9,7.0,-29.9,360.0,360.0,352.0,0.0,0.0,-0.0,23,25,21,73,0
2022-01-31 12:40:57.751155,-42.192,-73.194,33.3,31.0,1014.9,351.6,31.2,7.2,-29.7,360.0,360.0,352.0,0.0,0.0,-0.0,23,24,21,73,1
2022-01-31 12:41:02.871077,-42.009,-72.845,33.3,31.2,1014.9,351.4,31.5,7.3,-29.7,360.0,360.0,351.0,0.0,0.0,-0.1,23,25,21,74,1
2022-01-31 12:41:07.987994,-41.826,-72.499,33.3,31.2,1014.9,351.2,31.4,7.5,-29.5,360.0,360.0,351.0,0.0,0.0,-0.0,23,24,21,73,1
2022-01-31 12:41:13.106143,-41.642,-72.155,33.3,31.2,1014.9,351.1,31.6,7.2,-29.2,360.0,360.0,351.0,0.0,0.0,-0.0,24,24,21,73,1
2022-01-31 12:41:18.220837,-41.456,-71.813,33.3,31.1,1014.9,350.9,31.9,7.5,-28.8,360.0,360.0,351.0,0.0,0.0,-0.0,23,24,20,72,1
2022-01-31 12:41:23.329437,-41.27,-71.474,33.2,30.9,1014.9,350.7,31.9,7.7,-28.7,360.0,360.0,351.0,0.0,0.0,-0.0,23,24,21,72,1
2022-01-31 12:41:28.440433,-41.082,-71.136,33.2,31.0,1014.9,350.6,31.8,7.8,-29.0,360.0,360.0,350.0,0.0,0.0,-0.0,23,24,21,73,1
2022-01-31 12:41:33.551077,-40.894,-70.801,33.3,30.9,1014.9,350.4,32.0,7.7,-28.8,360.0,360.0,350.0,0.0,0.0,-0.0,24,25,21,74,1
2022-01-31 12:41:38.660854,-40.704,-70.467,33.3,30.0,1014.9,350.2,32.0,7.8,-28.7,360.0,360.0,350.0,0.0,0.0,-0.0,23,24,21,73,1
2022-01-31 12:41:43.779305,-40.513,-70.135,33.2,31.1,1014.9,350.1,32.1,8.1,-29.0,360.0,360.0,350.0,0.0,0.0,-0.1,23,24,21,73,1
2022-01-31 12:41:48.891113,-40.321,-69.806,33.3,30.8,1014.9,349.9,32.2,8.2,-28.9,360.0,360.0,350.0,0.0,0.0,-0.0,23,24,21,73,1
2022-01-31 12:41:54.001110,-40.128,-69.478,33.3,30.9,1014.9,349.7,32.2,8.2,-28.4,360.0,0.0,350.0,0.0,0.0,-0.1,23,25,21,73,1
2022-01-31 12:41:59.121077,-39.933,-69.152,33.3,31.0,1014.9,349.6,32.3,8.0,-28.6,360.0,0.0,350.0,0.0,0.0,-0.0,23,24,20,73,1
2022-01-31 12:42:04.240058,-39.738,-68.828,33.2,30.8,1014.9,349.5,32.3,8.1,-27.6,360.0,0.0,349.0,0.0,0.0,-0.0,23,24,20,73,1
2022-01-31 12:42:09.363494,-39.541,-68.505,33.3,30.1,1014.9,349.3,32.3,8.4,-28.1,360.0,0.0,349.0,0.0,0.0,-0.1,23,25,21,73,1
2022-01-31 12:42:14.485334,-39.343,-68.185,33.2,30.9,1014.9,349.2,32.4,8.7,-27.7,360.0,0.0,349.0,0.0,0.0,0.0,23,25,21,72,1
2022-01-31 12:42:19.602684,-39.145,-67.867,33.3,31.0,1014.9,349.0,32.4,8.5,-27.9,360.0,0.0,349.0,0.0,0.0,0.0,23,24,21,73,1
2022-01-31 12:42:24.711945,-38.946,-67.551,33.3,30.9,1014.9,348.8,32.4,8.5,-27.3,360.0,0.0,349.0,0.0,0.0,0.1,23,25,21,74,1
2022-01-31 12:42:29.837231,-38.745,-67.236,33.3,30.8,1014.9,348.7,32.5,8.9,-27.3,360.0,0.0,349.0,0.0,0.0,0.0,23,24,21,73,1
2022-01-31 12:42:34.962833,-38.543,-66.923,33.2,30.8,1014.9,348.5,32.5,8.9,-27.0,360.0,0.0,348.0,0.0,0.0,0.1,23,25,21,73,1
2022-01-31 12:42:40.078835,-38.341,-66.612,33.4,30.9,1014.9,348.4,32.7,9.2,-26.7,360.0,0.0,348.0,0.0,0.0,-0.0,24,25,21,74,1
2022-01-31 12:42:45.191784,-38.138,-66.303,33.2,31.3,1014.9,348.2,32.8,9.2,-27.0,360.0,0.0,348.0,0.0,0.0,0.1,23,24,21,73,1
2022-01-31 12:42:50.316430,-37.933,-65.996,33.4,31.0,1014.9,348.1,32.8,9.2,-26.5,360.0,0.0,348.0,0.0,0.0,-0.0,24,25,21,75,1
2022-01-31 12:42:55.436517,-37.728,-65.691,33.4,30.8,1014.9,347.9,32.9,9.5,-26.6,360.0,0.0,348.0,0.0,0.0,-0.0,23,25,21,73,1
2022-01-31 12:43:00.556613,-37.522,-65.387,33.3,31.0,1014.9,347.8,32.9,9.1,-27.1,360.0,0.0,348.0,0.0,0.0,-0.0,23,24,20,72,1
2022-01-31 12:43:05.675821,-37.315,-65.085,33.2,30.9,1014.9,347.6,33.2,9.6,-26.9,360.0,0.0,348.0,0.0,0.0,-0.1,23,24,20,73,1
2022-01-31 12:43:10.787971,-37.107,-64.785,33.3,31.2,1014.9,347.5,33.3,9.7,-26.1,360.0,0.0,347.0,0.0,0.0,-0.0,23,24,20,72,1
2022-01-31 12:43:15.909342,-36.898,-64.487,33.2,31.1,1014.9,347.3,33.1,9.9,-26.0,360.0,0.0,347.0,0.0,0.0,0.0,23,24,21,73,1
2022-01-31 12:43:21.029421,-36.688,-64.19,33.2,31.0,1014.9,347.2,32.8,10.1,-26.0,360.0,0.0,347.0,0.0,0.0,-0.0,24,25,21,74,1
2022-01-31 12:43:26.154297,-36.478,-63.895,33.3,30.8,1014.9,347.0,32.8,10.2,-25.7,360.0,0.0,347.0,0.0,0.0,0.0,23,24,21,73,1
2022-01-31 12:43:31.278299,-36.266,-63.602,33.3,31.1,1014.9,346.8,32.7,10.1,-26.0,360.0,0.0,347.0,0.0,0.0,-0.1,23,24,21,73,1
2022-01-31 12:43:36.402177,-36.054,-63.31,33.4,31.3,1014.9,346.7,32.9,10.1,-25.6,360.0,0.0,347.0,0.0,0.0,-0.0,24,25,21,74,1
2022-01-31 12:43:41.527050,-35.84,-63.02,33.3,30.9,1014.9,346.5,33.0,10.2,-25.4,360.0,0.0,346.0,0.0,0.0,0.0,23,24,21,73,1
2022-01-31 12:43:46.650795,-35.626,-62.732,33.2,31.0,1014.9,346.4,32.9,10.4,-25.2,360.0,0.0,346.0,0.0,0.0,0.0,24,24,20,74,1
2022-01-31 12:43:51.774682,-35.411,-62.445,33.2,30.9,1014.9,346.2,33.2,10.7,-24.7,360.0,0.0,346.0,0.0,0.0,0.0,23,24,21,73,1
2022-01-31 12:43:56.898660,-35.196,-62.16,33.3,31.1,1014.9,346.1,33.2,10.6,-25.0,360.0,0.0,346.0,0.0,0.0,0.0,23,24,20,73,1
2022-01-31 12:44:02.022714,-34.979,-61.876,33.3,30.9,1014.9,345.9,33.0,10.6,-24.3,360.0,0.0,346.0,0.0,0.0,-0.0,23,25,21,73,1
2022-01-31 12:44:07.146449,-34.762,-61.594,33.3,30.8,1014.9,345.8,33.2,10.5,-24.1,360.0,0.0,346.0,0.0,0.0,-0.0,23,24,20,72,1
2022-01-31 12:44:12.266650,-34.544,-61.314,33.2,30.9,1014.9,345.6,33.2,10.8,-24.0,360.0,0.0,346.0,0.0,0.0,-0.0,23,24,21,73,1
2022-01-31 12:44:17.386858,-34.326,-61.035,33.2,30.9,1014.9,345.5,33.3,10.7,-24.1,360.0,0.0,345.0,0.0,0.0,-0.0,24,25,21,74,1
2022-01-31 12:44:22.506420,-34.107,-60.758,33.3,31.0,1014.9,345.3,33.2,10.7,-23.9,360.0,0.0,345.0,0.0,0.0,-0.0,24,25,21,73,1
2022-01-31 12:44:27.617362,-33.887,-60.483,33.3,31.1,1014.9,345.2,33.3,11.0,-23.5,360.0,0.0,345.0,0.0,0.0,-0.0,23,24,20,73,1
2022-01-31 12:44:32.727484,-33.667,-60.21,33.3,31.0,1014.9,345.1,33.5,11.0,-23.5,360.0,0.0,345.0,0.0,0.0,-0.0,24,25,21,74,1
2022-01-31 12:44:37.850575,-33.445,-59.937,33.2,31.0,1014.9,344.9,33.6,11.2,-23.6,360.0,0.0,345.0,0.0,0.0,0.0,23,24,21,73,1
2022-01-31 12:44:42.969515,-33.223,-59.666,33.2,32.3,1014.9,344.8,33.8,11.4,-23.6,360.0,0.0,345.0,0.0,0.0,0.0,24,25,21,74,1
2022-01-31 12:44:48.077578,-33.001,-59.397,33.3,30.7,1014.9,344.7,34.0,11.4,-23.3,360.0,0.0,345.0,0.0,0.0,0.0,23,24,21,73,1
2022-01-31 12:44:53.197071,-32.777,-59.129,33.3,30.8,1014.9,344.5,33.7,11.0,-23.4,360.0,0.0,344.0,0.0,0.0,0.0,24,25,21,74,1
2022-01-31 12:44:58.309218,-32.553,-58.863,33.4,30.9,1014.9,344.4,33.5,11.1,-23.2,360.0,0.0,344.0,0.0,0.0,-0.0,23,24,21,73,1
2022-01-31 12:45:03.424909,-32.329,-58.598,33.3,30.8,1014.9,344.3,33.6,11.1,-23.1,360.0,0.0,344.0,0.0,0.0,-0.1,23,24,21,73,1
2022-01-31 12:45:08.537189,-32.103,-58.335,33.3,30.9,1014.9,344.2,33.5,11.1,-23.2,360.0,0.0,344.0,0.0,0.0,-0.1,23,24,20,72,1
2022-01-31 12:45:13.661238,-31.877,-58.072,33.3,30.9,1015.0,344.1,33.7,10.9,-23.2,360.0,0.0,344.0,0.0,0.0,0.1,23,24,21,73,1
2022-01-31 12:45:18.784974,-31.65,-57.811,33.3,30.8,1014.9,344.0,33.8,11.0,-23.0,360.0,0.0,344.0,0.0,0.0,0.0,23,24,21,74,1
2022-01-31 12:45:23.902937,-31.423,-57.551,33.4,31.1,1014.9,344.0,33.8,11.3,-22.2,360.0,0.0,344.0,0.0,0.0,0.1,24,25,21,74,1
2022-01-31 12:45:29.027131,-31.194,-57.293,33.4,30.8,1015.0,343.9,33.9,11.1,-22.2,360.0,0.0,344.0,0.0,0.0,-0.0,23,24,21,72,1
2022-01-31 12:45:34.150269,-30.966,-57.035,33.3,31.1,1014.9,343.8,33.9,11.2,-21.9,360.0,0.0,344.0,0.0,0.0,0.0,23,25,21,73,1
2022-01-31 12:45:39.269623,-30.736,-56.78,33.3,31.0,1014.9,343.7,33.6,11.3,-22.0,360.0,0.0,344.0,0.0,0.0,-0.0,24,25,21,74,1
2022-01-31 12:45:44.380656,-30.507,-56.526,33.4,30.9,1014.9,343.6,33.7,11.2,-22.1,360.0,0.0,344.0,0.0,0.0,-0.0,23,24,20,72,1
2022-01-31 12:45:49.492002,-30.277,-56.273,33.4,31.1,1014.9,343.5,33.7,11.4,-22.0,360.0,0.0,343.0,0.0,0.0,-0.0,24,25,21,74,1
2022-01-31 12:45:54.603622,-30.046,-56.022,33.2,30.6,1014.9,343.4,34.2,11.3,-21.6,360.0,0.0,343.0,0.0,0.0,-0.0,23,24,20,73,1
2022-01-31 12:45:59.711087,-29.815,-55.772,33.3,30.8,1014.9,343.4,34.2,11.5,-21.6,360.0,0.0,343.0,0.0,0.0,-0.0,23,24,20,72,1
2022-01-31 12:46:04.821864,-29.583,-55.523,33.3,30.9,1014.9,343.3,34.0,11.7,-21.7,360.0,0.0,343.0,0.0,0.0,-0.1,23,24,20,72,1
2022-01-31 12:46:09.937364,-29.35,-55.275,33.3,30.8,1014.9,343.2,33.7,11.8,-21.4,360.0,0.0,343.0,0.0,0.0,-0.1,23,24,20,72,1
2022-01-31 12:46:15.060362,-29.117,-55.028,33.4,31.1,1014.9,343.1,33.8,11.9,-21.4,360.0,0.0,343.0,0.0,0.0,-0.0,23,24,21,74,1
2022-01-31 12:46:20.179717,-28.883,-54.782,33.4,30.8,1014.9,343.0,34.1,11.9,-20.8,360.0,0.0,343.0,0.0,0.0,0.1,23,25,21,73,1
2022-01-31 12:46:25.293259,-28.649,-54.538,33.3,30.9,1014.9,342.9,34.0,11.9,-20.7,360.0,0.0,343.0,0.0,0.0,0.1,24,25,21,75,1
2022-01-31 12:46:30.416494,-28.414,-54.295,33.4,31.0,1014.9,342.8,34.0,12.2,-20.6,360.0,0.0,343.0,0.0,0.0,0.0,23,24,21,73,1
2022-01-31 12:46:35.535482,-28.178,-54.052,33.3,30.9,1014.9,342.7,34.2,12.0,-20.5,360.0,0.0,343.0,0.0,0.0,-0.0,23,25,21,73,1
2022-01-31 12:46:40.647388,-27.943,-53.812,33.3,30.8,1014.9,342.6,34.0,12.2,-20.1,360.0,0.0,343.0,0.0,0.0,-0.0,23,25,21,73,1
2022-01-31 12:46:45.759282,-27.707,-53.572,33.3,30.8,1014.9,342.5,33.9,12.2,-20.0,360.0,0.0,342.0,0.0,0.0,-0.0,23,25,21,73,1
2022-01-31 12:46:50.874537,-27.47,-53.334,33.4,30.9,1014.9,342.4,33.7,12.4,-19.9,360.0,0.0,342.0,0.0,0.0,0.0,23,24,20,72,1
2022-01-31 12:46:55.985815,-27.233,-53.096,33.3,30.8,1014.9,342.3,33.9,12.2,-19.9,360.0,0.0,342.0,0.0,0.0,0.0,23,24,21,73,1
2022-01-31 12:47:01.097259,-26.995,-52.86,33.2,30.9,1014.9,342.2,34.0,12.3,-19.8,360.0,0.0,342.0,0.0,0.0,-0.0,24,25,21,74,1
2022-01-31 12:47:06.209377,-26.757,-52.625,33.3,31.0,1014.9,342.2,34.1,12.2,-19.9,360.0,0.0,342.0,0.0,0.0,0.0,23,24,21,73,1
2022-01-31 12:47:11.319062,-26.518,-52.391,33.3,30.9,1014.9,342.1,34.2,12.2,-19.5,360.0,0.0,342.0,0.0,0.0,0.1,23,24,21,73,1
2022-01-31 12:47:16.443661,-26.279,-52.157,33.4,30.7,1014.9,342.0,33.9,12.1,-19.5,360.0,0.0,342.0,0.0,0.0,0.1,23,24,21,74,1
2022-01-31 12:47:21.568095,-26.039,-51.925,33.3,30.9,1014.9,342.0,33.7,12.2,-19.5,360.0,0.0,342.0,0.0,0.0,-0.0,23,24,21,73,1
2022-01-31 12:47:26.691044,-25.798,-51.693,33.3,31.0,1014.9,341.9,33.6,12.1,-19.1,0.0,0.0,342.0,0.0,0.0,-0.0,23,25,21,73,1
2022-01-31 12:47:31.810104,-25.557,-51.463,33.3,30.9,1014.9,341.8,33.7,12.0,-19.4,0.0,0.0,342.0,0.0,0.0,-0.0,24,25,21,74,1
2022-01-31 12:47:36.920809,-25.317,-51.234,33.4,30.9,1014.9,341.8,33.7,11.7,-19.9,0.0,0.0,342.0,0.0,0.0,-0.0,23,24,20,72,1
2022-01-31 12:47:42.031810,-25.075,-51.006,33.3,31.1,1015.0,341.7,33.8,11.8,-19.4,0.0,0.0,342.0,0.0,0.0,-0.1,23,24,20,72,1
2022-01-31 12:47:47.154602,-24.833,-50.779,33.4,31.0,1015.0,341.7,33.6,12.0,-18.9,0.0,0.0,342.0,0.0,0.0,-0.1,23,24,20,73,1
2022-01-31 12:47:52.277887,-24.59,-50.552,33.4,30.7,1014.9,341.6,33.6,11.9,-18.4,0.0,0.0,342.0,0.0,0.0,-0.0,24,25,21,75,1
2022-01-31 12:47:57.389334,-24.348,-50.327,33.3,30.9,1015.0,341.6,33.4,11.8,-18.3,0.0,0.0,342.0,0.0,0.0,0.0,24,25,21,74,1
2022-01-31 12:48:02.501379,-24.105,-50.103,33.4,30.9,1014.9,341.6,33.5,11.8,-18.2,0.0,0.0,342.0,0.0,0.0,-0.0,23,24,20,72,1
2022-01-31 12:48:07.621715,-23.861,-49.879,33.3,30.9,1015.0,341.5,33.6,11.7,-18.1,0.0,0.0,342.0,0.0,0.0,-0.0,23,25,21,73,1
2022-01-31 12:48:12.734162,-23.617,-49.657,33.4,31.6,1015.0,341.5,33.7,11.7,-18.1,0.0,0.0,341.0,0.0,0.0,-0.0,24,25,21,74,1
2022-01-31 12:48:17.857682,-23.372,-49.435,33.2,30.7,1015.0,341.5,33.8,11.7,-17.6,0.0,0.0,341.0,0.0,0.0,0.1,23,25,21,73,1
2022-01-31 12:48:22.972870,-23.128,-49.214,33.2,30.9,1015.0,341.4,33.5,12.0,-17.8,0.0,0.0,341.0,0.0,0.0,0.0,23,24,20,73,1
2022-01-31 12:48:28.084338,-22.883,-48.994,33.5,30.8,1015.0,341.4,33.7,11.6,-17.8,0.0,0.0,341.0,0.0,0.0,-0.0,24,25,21,74,1
2022-01-31 12:48:33.196408,-22.637,-48.775,33.3,30.9,1014.9,341.4,33.9,11.4,-17.4,0.0,0.0,341.0,0.0,0.0,-0.1,23,24,20,72,1
2022-01-31 12:48:38.314744,-22.391,-48.557,33.4,30.8,1015.0,341.4,33.9,11.9,-17.4,0.0,0.0,341.0,0.0,0.0,-0.0,23,24,20,72,1
2022-01-31 12:48:43.437670,-22.145,-48.339,33.4,30.9,1015.0,341.3,33.8,11.6,-17.4,0.0,0.0,341.0,0.0,0.0,-0.0,23,24,21,73,1
2022-01-31 12:48:48.561136,-21.898,-48.123,33.3,30.9,1014.9,341.3,33.5,11.9,-16.5,0.0,0.0,341.0,0.0,0.0,-0.0,23,24,20,73,1
2022-01-31 12:48:53.675737,-21.651,-47.907,33.4,30.9,1014.9,341.3,33.3,11.8,-17.1,0.0,0.0,341.0,0.0,0.0,-0.0,23,25,21,73,1
2022-01-31 12:48:58.787293,-21.404,-47.692,33.2,30.9,1015.0,341.3,33.6,11.8,-17.2,0.0,0.0,341.0,0.0,0.0,-0.0,23,24,21,73,1
2022-01-31 12:49:03.898990,-21.156,-47.478,33.3,30.7,1015.0,341.2,33.4,11.9,-16.9,0.0,0.0,341.0,0.0,0.0,0.0,23,24,20,72,1
2022-01-31 12:49:09.011330,-20.908,-47.265,33.3,30.9,1015.0,341.2,33.5,12.0,-16.8,0.0,0.0,341.0,0.0,0.0,0.0,23,25,21,73,1
2022-01-31 12:49:14.122132,-20.66,-47.053,33.4,31.1,1015.0,341.2,33.5,12.0,-17.0,0.0,0.0,341.0,0.0,0.0,0.0,23,25,21,74,1
2022-01-31 12:49:19.233607,-20.412,-46.841,33.3,31.0,1015.0,341.1,33.6,12.0,-16.5,0.0,0.0,341.0,0.0,0.0,-0.0,23,25,21,73,1
2022-01-31 12:49:24.357001,-20.163,-46.629,33.2,30.8,1015.0,341.1,33.7,12.4,-16.4,0.0,0.0,341.0,0.0,0.0,-0.0,23,24,20,72,1
2022-01-31 12:49:29.480149,-19.913,-46.419,33.4,30.6,1015.0,341.0,33.8,12.4,-16.3,0.0,0.0,341.0,0.0,0.0,-0.0,23,24,21,73,1
2022-01-31 12:49:34.599059,-19.663,-46.209,33.4,30.7,1015.0,341.0,33.5,12.1,-15.9,0.0,0.0,341.0,0.0,0.0,0.0,23,25,21,73,1
2022-01-31 12:49:39.710522,-19.413,-46.0,33.4,30.9,1015.0,340.9,33.3,12.1,-15.8,0.0,0.0,341.0,0.0,0.0,-0.0,24,25,21,75,1
2022-01-31 12:49:44.822501,-19.163,-45.792,33.4,31.0,1015.0,340.9,33.4,12.0,-16.6,0.0,0.0,341.0,0.0,0.0,-0.0,24,25,21,74,1
2022-01-31 12:49:49.934628,-18.913,-45.585,33.4,31.1,1015.0,340.9,33.4,11.9,-16.3,0.0,0.0,341.0,0.0,0.0,0.0,23,24,20,72,1
2022-01-31 12:49:55.045611,-18.662,-45.378,33.3,30.9,1015.0,340.9,33.4,11.8,-16.8,0.0,0.0,341.0,0.0,0.0,-0.0,23,25,21,74,1
2022-01-31 12:50:00.157516,-18.411,-45.172,33.3,31.0,1015.0,340.9,33.6,11.8,-15.9,0.0,0.0,341.0,0.0,0.0,-0.0,23,24,21,73,1
2022-01-31 12:50:05.269711,-18.16,-44.967,33.3,31.1,1015.0,340.8,33.4,11.8,-15.8,0.0,0.0,341.0,0.0,0.0,-0.0,24,25,21,74,1
2022-01-31 12:50:10.379114,-17.909,-44.762,33.3,31.0,1015.0,340.8,33.2,11.9,-15.3,0.0,0.0,341.0,0.0,0.0,0.1,23,24,20,72,1
2022-01-31 12:50:15.497329,-17.657,-44.557,33.4,31.1,1015.0,340.8,33.3,11.7,-15.6,0.0,0.0,341.0,0.0,0.0,-0.0,23,24,20,73,0
2022-01-31 12:50:20.608530,-17.405,-44.354,33.3,30.9,1015.0,340.8,33.1,11.8,-15.8,0.0,0.0,341.0,0.0,0.0,-0.0,24,25,21,74,1
2022-01-31 12:50:25.720458,-17.153,-44.151,33.4,31.0,1015.0,340.8,33.3,11.9,-15.7,0.0,0.0,341.0,0.0,0.0,-0.0,24,25,21,74,1
2022-01-31 12:50:30.832304,-16.9,-43.949,33.3,30.8,1015.0,340.8,33.2,11.7,-15.8,0.0,0.0,341.0,0.0,0.0,-0.1,23,24,20,73,1
2022-01-31 12:50:35.943960,-16.647,-43.747,33.3,31.1,1015.0,340.7,33.1,11.7,-15.8,0.0,0.0,341.0,0.0,0.0,-0.0,23,24,21,73,1
2022-01-31 12:50:41.056289,-16.394,-43.546,33.4,31.0,1015.0,340.7,33.1,11.7,-15.5,0.0,0.0,341.0,0.0,0.0,-0.1,23,24,20,72,1
2022-01-31 12:50:46.176987,-16.14,-43.345,33.5,31.0,1015.0,340.7,33.3,11.7,-15.3,0.0,0.0,341.0,0.0,0.0,-0.0,24,25,21,75,1
2022-01-31 12:50:51.300571,-15.886,-43.144,33.4,30.9,1015.0,340.7,33.2,11.8,-15.2,0.0,0.0,341.0,0.0,0.0,-0.0,23,25,21,73,1
2022-01-31 12:50:56.415029,-15.632,-42.945,33.3,30.8,1015.0,340.7,33.2,11.7,-15.7,0.0,0.0,341.0,0.0,0.0,-0.0,24,25,21,74,1
2022-01-31 12:51:01.527769,-15.378,-42.746,33.2,30.8,1015.0,340.7,33.3,11.8,-15.2,0.0,0.0,341.0,0.0,0.0,0.1,23,24,21,73,1
2022-01-31 12:51:06.639682,-15.124,-42.548,33.4,31.0,1015.0,340.7,33.1,11.6,-14.8,0.0,0.0,341.0,0.0,0.0,0.1,23,24,21,72,1
2022-01-31 12:51:11.755734,-14.869,-42.349,33.2,31.0,1015.0,340.7,33.2,11.7,-15.0,0.0,0.0,341.0,0.0,0.0,-0.1,23,24,20,73,1
2022-01-31 12:51:16.879970,-14.614,-42.152,33.3,30.9,1015.0,340.7,33.1,11.9,-15.1,0.0,0.0,341.0,0.0,0.0,-0.0,23,25,21,73,1
2022-01-31 12:51:22.001111,-14.359,-41.954,33.4,30.8,1015.0,340.7,33.5,11.7,-15.1,0.0,0.0,341.0,0.0,0.0,-0.0,24,24,21,74,1
2022-01-31 12:51:27.120769,-14.103,-41.758,33.3,31.0,1014.9,340.7,33.4,11.6,-15.0,0.0,0.0,341.0,0.0,0.0,-0.1,23,24,21,73,1
2022-01-31 12:51:32.244492,-13.847,-41.561,33.4,30.8,1015.0,340.7,33.3,11.8,-14.8,0.0,0.0,341.0,0.0,0.0,0.1,23,24,20,72,1
2022-01-31 12:51:37.359823,-13.592,-41.366,33.2,30.7,1015.0,340.7,33.3,11.4,-14.8,0.0,0.0,341.0,0.0,0.0,0.0,23,24,21,73,1
2022-01-31 12:51:42.471216,-13.336,-41.171,33.4,30.8,1015.0,340.7,33.4,11.4,-15.0,0.0,0.0,341.0,0.0,0.0,-0.1,23,24,20,72,1
2022-01-31 12:51:47.583060,-13.08,-40.976,33.3,30.8,1015.0,340.7,33.2,11.4,-14.6,0.0,0.0,341.0,0.0,0.0,0.0,23,25,20,74,1
2022-01-31 12:51:52.695330,-12.824,-40.782,33.3,31.0,1015.0,340.7,33.3,11.4,-14.8,0.0,0.0,341.0,0.0,0.0,-0.1,23,24,21,73,1
2022-01-31 12:51:57.815849,-12.567,-40.588,33.4,30.8,1015.0,340.7,33.4,11.3,-14.8,0.0,0.0,341.0,0.0,0.0,-0.1,24,25,21,74,1
2022-01-31 12:52:02.939248,-12.31,-40.394,33.2,30.7,1015.0,340.8,33.4,11.3,-14.8,0.0,0.0,341.0,0.0,0.0,0.0,23,25,21,73,1
2022-01-31 12:52:08.048340,-12.054,-40.202,33.3,30.2,1015.1,340.8,33.3,11.2,-14.9,0.0,0.0,341.0,0.0,0.0,-0.0,23,25,21,74,1
2022-01-31 12:52:13.171861,-11.796,-40.009,33.4,30.6,1015.0,340.8,33.4,11.2,-14.7,0.0,0.0,341.0,0.0,0.0,-0.1,23,24,21,73,1
2022-01-31 12:52:18.294762,-11.539,-39.816,33.3,30.7,1015.0,340.8,33.3,11.0,-14.8,0.0,0.0,341.0,0.0,0.0,0.0,24,25,21,72,1
2022-01-31 12:52:23.406735,-11.281,-39.625,33.4,30.9,1015.0,340.9,33.2,11.0,-14.8,0.0,0.0,341.0,0.0,0.0,-0.1,23,24,21,73,1
2022-01-31 12:52:28.518568,-11.024,-39.433,33.4,31.1,1015.0,340.9,33.1,10.8,-14.6,0.0,0.0,341.0,0.0,0.0,-0.0,23,24,20,73,1
2022-01-31 12:52:33.630513,-10.767,-39.242,33.2,30.8,1015.0,340.9,33.1,10.9,-14.4,0.0,0.0,341.0,0.0,0.0,0.0,24,24,21,74,1
2022-01-31 12:52:38.750928,-10.509,-39.052,33.3,30.8,1015.0,340.9,33.1,11.0,-14.7,0.0,0.0,341.0,0.0,0.0,-0.0,24,24,20,75,1
