Data's start,Time,Latitude,Longitude,Pitch,Roll,Yaw,Acceleration(x axis),Acceleration(y axis),Acceleration(z axis),North,Compass(x axis),Compass(y axis),Compass(z axis),Temperature,Humidity,Pressure,Movement,R(photo),G(photo),B(photo),R(light),G(light),Blue(light),Clear
[I 220610 13:38:52 main_exceptions:80] 0,13:38:52,47.712,-4.861,358.853,357.817,31.136,0.02,-0.034,0.956,31.135,7.984,-4.738,-3.27,37.082,37.061,1024.996,False,136.518,132.619,121.97,0,0,0,2
[I 220610 13:38:55 main_exceptions:80] 0,13:38:55,47.801,-4.565,358.852,357.819,31.135,0.018,-0.035,0.959,31.09,11.605,-6.351,-5.312,37.311,37.134,1025.01,False,151.833,146.271,136.965,48,60,45,141
[I 220610 13:38:59 main_exceptions:80] 0,13:38:59,47.89,-4.266,358.852,357.819,31.016,0.02,-0.033,0.958,30.947,13.172,-7.023,-6.608,37.082,36.764,1025.02,False,150.865,145.675,136.197,47,59,44,138
[I 220610 13:39:02 main_exceptions:80] 0,13:39:02,47.976,-3.971,358.852,357.819,30.859,0.023,-0.026,0.961,30.775,13.896,-7.374,-7.423,37.025,36.878,1025.05,False,153.557,148.169,137.582,52,65,46,100
[I 220610 13:39:06 main_exceptions:80] 0,13:39:06,48.062,-3.673,358.852,357.819,30.684,0.02,-0.034,0.96,30.606,13.987,-7.364,-7.195,36.987,37.096,1025.025,False,153.779,148.345,135.444,40,51,39,117
[I 220610 13:39:09 main_exceptions:80] 0,13:39:09,48.149,-3.372,358.852,357.819,30.523,0.02,-0.035,0.957,30.44,14.033,-7.368,-7.107,37.025,36.973,1025.0,False,153.162,147.677,137.531,39,50,30,108
[I 220610 13:39:13 main_exceptions:80] 0,13:39:13,48.233,-3.072,358.852,357.819,30.351,0.02,-0.035,0.957,30.274,14.166,-7.543,-7.145,37.006,37.08,1025.009,False,153.7,149.112,139.437,32,42,29,92
[I 220610 13:39:16 main_exceptions:80] 0,13:39:16,48.317,-2.769,358.852,357.819,30.206,0.019,-0.035,0.956,30.14,14.141,-7.585,-6.715,37.12,37.027,1025.014,False,155.083,148.614,139.776,48,62,33,143
[I 220610 13:39:20 main_exceptions:80] 0,13:39:20,48.399,-2.471,358.852,357.819,30.086,0.02,-0.035,0.956,30.03,14.147,-7.651,-6.225,36.948,36.853,1025.007,False,154.989,148.945,138.714,31,42,26,89
[I 220610 13:39:24 main_exceptions:80] 0,13:39:24,48.481,-2.167,358.852,357.819,29.985,0.021,-0.036,0.956,29.928,14.243,-7.422,-6.322,37.139,36.685,1025.006,False,153.434,149.051,140.039,50,63,45,148
[I 220610 13:39:27 main_exceptions:80] 0,13:39:27,48.563,-1.86,358.852,357.819,29.854,0.021,-0.034,0.957,29.79,14.341,-7.58,-6.854,37.311,37.099,1024.96,False,153.711,149.672,139.177,51,64,45,150
[I 220610 13:39:30 main_exceptions:80] 0,13:39:30,48.644,-1.552,358.852,357.819,29.743,0.021,-0.036,0.956,29.699,14.326,-7.603,-6.437,37.139,36.916,1025.01,False,156.094,150.041,139.102,35,45,33,100
[I 220610 13:39:34 main_exceptions:80] 0,13:39:34,48.721,-1.254,358.852,357.819,29.649,0.02,-0.036,0.956,29.6,13.975,-7.597,-6.19,36.891,36.739,1024.995,False,156.563,150.444,140.291,33,44,30,152
[I 220610 13:39:38 main_exceptions:80] 0,13:39:38,48.799,-0.947,358.852,357.819,29.572,0.021,-0.035,0.955,29.531,14.295,-7.635,-6.502,37.216,36.948,1024.988,False,154.032,150.163,139.902,50,62,41,140
[I 220610 13:39:41 main_exceptions:80] 0,13:39:41,48.877,-0.636,358.852,357.819,29.496,0.02,-0.035,0.956,29.462,14.405,-7.799,-6.683,37.426,36.922,1024.981,False,155.294,150.256,140.617,51,64,44,147
[I 220610 13:39:45 main_exceptions:80] 0,13:39:45,48.954,-0.326,358.852,357.819,29.448,0.02,-0.035,0.956,29.436,14.335,-7.731,-7.221,36.968,36.846,1024.994,False,155.644,150.309,140.887,42,52,40,118
[I 220610 13:39:48 main_exceptions:80] 0,13:39:48,49.029,-0.018,358.852,357.819,29.412,0.021,-0.035,0.954,29.372,14.571,-7.586,-7.079,37.177,36.815,1024.993,False,155.411,149.911,139.045,50,62,47,145
[I 220610 13:39:51 main_exceptions:80] 0,13:39:51,49.104,0.294,358.852,357.819,29.323,0.02,-0.036,0.956,29.268,14.397,-7.499,-6.418,37.025,36.755,1025.018,False,154.039,150.319,137.649,49,61,46,142
[I 220610 13:39:55 main_exceptions:80] 0,13:39:55,49.176,0.599,358.852,357.819,29.228,0.022,-0.035,0.958,29.184,14.369,-7.609,-6.411,37.387,36.951,1024.99,False,154.42,150.546,138.739,42,52,41,118
[I 220610 13:39:58 main_exceptions:80] 0,13:39:58,49.25,0.915,358.852,357.819,29.155,0.022,-0.036,0.957,29.134,14.317,-7.768,-6.395,36.948,36.84,1025.002,False,155.603,150.426,138.968,35,45,32,97
[I 220610 13:40:02 main_exceptions:80] 0,13:40:02,49.321,1.224,358.852,357.819,29.132,0.022,-0.035,0.957,29.137,14.02,-7.676,-6.927,37.101,36.872,1025.012,False,155.681,150.818,139.983,47,58,45,136
[I 220610 13:40:05 main_exceptions:80] 0,13:40:05,49.391,1.537,358.852,357.819,29.14,0.02,-0.035,0.955,29.134,14.588,-7.867,-6.791,37.216,36.6,1024.994,False,156.434,151.079,139.498,52,65,48,151
[I 220610 13:40:09 main_exceptions:80] 0,13:40:09,49.462,1.854,358.852,357.819,29.123,0.02,-0.036,0.956,29.097,14.451,-7.632,-6.93,37.063,36.682,1025.002,False,154.731,150.593,139.926,35,45,29,94
[I 220610 13:40:12 main_exceptions:80] 0,13:40:12,49.532,2.175,358.852,357.819,29.069,0.021,-0.036,0.954,29.052,14.6,-8.008,-6.931,37.12,36.91,1024.991,False,156.119,150.472,140.436,40,51,31,107
[I 220610 13:40:16 main_exceptions:80] 0,13:40:16,49.599,2.486,358.852,357.819,29.053,0.021,-0.034,0.954,29.034,14.588,-7.74,-6.13,37.311,36.638,1024.997,False,156.374,150.95,138.728,41,64,43,117
[I 220610 13:40:19 main_exceptions:80] 0,13:40:19,49.667,2.808,358.852,357.819,29.006,0.02,-0.036,0.956,28.969,14.634,-7.722,-6.748,37.197,36.837,1025.032,False,155.909,150.895,139.201,52,48,36,148
[I 220610 13:40:23 main_exceptions:80] 0,13:40:23,49.732,3.125,358.852,357.819,28.943,0.021,-0.035,0.956,28.901,14.463,-7.372,-6.678,37.158,36.616,1024.962,False,155.025,150.599,139.509,47,58,44,135
[I 220610 13:40:26 main_exceptions:80] 0,13:40:26,49.798,3.448,358.852,357.819,28.834,0.021,-0.035,0.956,28.738,14.303,-7.135,-6.622,37.12,36.783,1025.022,False,155.022,150.146,140.756,42,53,33,114
[I 220610 13:40:30 main_exceptions:80] 0,13:40:30,49.862,3.768,358.852,357.819,28.687,0.021,-0.035,0.956,28.669,14.279,-7.508,-7.189,37.292,36.638,1024.96,False,155.379,150.493,141.203,50,48,30,146
[I 220610 13:40:34 main_exceptions:80] 0,13:40:34,49.926,4.095,358.852,357.819,28.667,0.021,-0.035,0.956,28.691,14.161,-7.758,-6.158,37.387,36.941,1024.936,False,155.321,150.664,140.089,46,57,44,133
[I 220610 13:40:37 main_exceptions:80] 0,13:40:37,49.989,4.42,358.852,357.819,28.707,0.02,-0.037,0.955,28.687,14.478,-7.432,-5.922,37.063,36.635,1024.976,False,155.012,150.822,139.127,40,52,45,109
[I 220610 13:40:41 main_exceptions:80] 0,13:40:41,50.051,4.744,358.852,357.819,28.646,0.022,-0.034,0.958,28.605,14.646,-7.514,-6.516,37.177,36.571,1024.983,False,155.032,150.64,140.172,45,56,43,131
[I 220610 13:40:44 main_exceptions:80] 0,13:40:44,50.111,5.07,358.852,357.819,28.583,0.02,-0.034,0.955,28.597,14.389,-7.852,-6.645,37.197,36.691,1025.006,False,156.083,150.385,138.542,43,53,41,122
[I 220610 13:40:48 main_exceptions:80] 0,13:40:48,50.17,5.394,358.852,357.819,28.624,0.021,-0.035,0.955,28.657,13.93,-7.62,-6.369,37.311,36.584,1024.983,False,154.624,150.608,140.52,36,63,47,96
[I 220610 13:40:51 main_exceptions:80] 0,13:40:51,50.229,5.72,358.852,357.819,28.679,0.02,-0.035,0.955,28.709,14.083,-7.888,-6.329,37.368,36.476,1024.971,False,154.743,150.768,140.051,35,45,31,95
[I 220610 13:40:55 main_exceptions:80] 0,13:40:55,50.285,6.044,358.852,357.819,28.763,0.021,-0.035,0.956,28.822,14.19,-8.045,-6.375,37.407,36.635,1024.972,False,156.263,150.954,139.233,43,53,41,122
[I 220610 13:40:58 main_exceptions:80] 0,13:40:58,50.342,6.373,358.852,357.819,28.872,0.021,-0.036,0.955,28.912,14.047,-7.878,-6.356,37.311,36.359,1024.973,False,155.692,150.595,140.057,39,50,31,105
[I 220610 13:41:02 main_exceptions:80] 0,13:41:02,50.398,6.704,358.852,357.819,28.945,0.02,-0.035,0.956,28.973,14.198,-7.947,-5.882,37.368,36.261,1025.038,False,153.549,149.924,139.635,37,48,29,99
[I 220610 13:41:05 main_exceptions:80] 0,13:41:05,50.451,7.029,358.852,357.819,29.002,0.021,-0.036,0.956,29.043,13.978,-7.93,-5.812,37.254,36.587,1025.016,False,154.794,150.213,139.548,48,60,39,133
[I 220610 13:41:09 main_exceptions:80] 0,13:41:09,50.505,7.362,358.852,357.819,29.076,0.021,-0.034,0.956,29.089,14.28,-7.842,-6.409,37.177,36.65,1025.014,False,154.422,150.811,138.555,48,60,39,133
[I 220610 13:41:12 main_exceptions:80] 0,13:41:12,50.556,7.686,358.852,357.819,29.093,0.02,-0.035,0.956,29.109,14.344,-8.027,-6.973,37.445,36.514,1024.967,False,156.021,150.54,139.464,38,48,36,108
[I 220610 13:41:16 main_exceptions:80] 0,13:41:16,50.608,8.018,358.852,357.819,29.133,0.02,-0.036,0.956,29.149,14.133,-7.805,-7.036,37.693,36.306,1024.958,False,155.304,150.47,140.116,45,57,36,129
[I 220610 13:41:19 main_exceptions:80] 0,13:41:19,50.658,8.354,358.852,357.819,29.156,0.022,-0.035,0.957,29.156,14.486,-7.945,-6.432,37.407,36.439,1024.955,False,155.351,150.635,140.552,41,53,32,112
[I 220610 13:41:23 main_exceptions:80] 0,13:41:23,50.708,8.691,358.852,357.819,29.159,0.021,-0.036,0.958,29.172,14.554,-8.34,-6.8,37.54,36.309,1024.94,False,155.533,150.986,139.609,52,64,48,150
[I 220610 13:41:26 main_exceptions:80] 0,13:41:26,50.755,9.018,358.852,357.819,29.216,0.021,-0.036,0.956,29.261,14.392,-8.241,-6.857,37.693,36.397,1024.922,False,155.971,150.801,139.767,35,45,32,96
[I 220610 13:41:30 main_exceptions:80] 0,13:41:30,50.803,9.354,358.852,357.819,29.309,0.022,-0.035,0.956,29.337,14.36,-8.103,-6.981,37.693,36.41,1024.932,False,155.083,150.177,140.054,43,54,34,116
[I 220610 13:41:33 main_exceptions:80] 0,13:41:33,50.849,9.691,358.852,357.819,29.357,0.021,-0.035,0.954,29.358,14.415,-7.838,-7.15,37.674,36.42,1024.955,False,155.327,150.401,140.947,52,65,48,151
[I 220610 13:41:36 main_exceptions:80] 0,13:41:36,50.894,10.029,358.852,357.819,29.342,0.022,-0.036,0.955,29.311,14.262,-7.626,-7.15,37.674,36.53,1024.949,False,156.179,150.595,139.437,52,65,45,149
[I 220610 13:41:40 main_exceptions:80] 0,13:41:40,50.937,10.356,358.852,357.819,29.293,0.022,-0.036,0.957,29.275,14.257,-7.732,-7.281,37.578,36.451,1024.951,False,155.697,150.579,139.867,38,48,36,108
[I 220610 13:41:44 main_exceptions:80] 0,13:41:44,50.98,10.696,358.852,357.819,29.26,0.02,-0.036,0.957,29.235,14.401,-7.751,-6.944,37.655,36.483,1024.943,False,155.705,150.652,138.99,51,64,44,112
[I 220610 13:41:47 main_exceptions:80] 0,13:41:47,51.023,11.039,358.852,357.819,29.222,0.021,-0.035,0.958,29.18,14.757,-7.59,-7.19,37.349,36.344,1024.977,False,155.884,150.382,139.286,39,49,37,110
[I 220610 13:41:51 main_exceptions:80] 0,13:41:51,51.064,11.38,358.852,357.819,29.134,0.022,-0.036,0.958,29.12,14.549,-8.04,-6.427,37.617,36.502,1024.943,False,154.769,150.749,138.61,39,49,38,112
[I 220610 13:41:54 main_exceptions:80] 0,13:41:54,51.102,11.712,358.852,357.819,29.129,0.022,-0.036,0.957,29.135,14.321,-8.012,-6.421,37.597,36.356,1024.964,False,155.669,150.443,139.495,52,65,45,148
[I 220610 13:41:58 main_exceptions:80] 0,13:41:58,51.141,12.053,358.852,357.819,29.152,0.021,-0.036,0.957,29.143,14.385,-7.655,-6.703,37.502,36.299,1024.98,False,155.884,150.672,138.763,46,57,43,132
[I 220610 13:42:01 main_exceptions:80] 0,13:42:01,51.179,12.395,358.852,357.819,29.125,0.02,-0.035,0.957,29.104,14.408,-7.607,-6.848,37.769,36.129,1024.98,False,154.957,150.173,141.139,53,45,31,153
[I 220610 13:42:04 main_exceptions:80] 0,13:42:04,51.216,12.737,358.852,357.819,29.077,0.022,-0.035,0.959,29.05,14.279,-7.462,-7.453,37.617,36.347,1025.016,False,154.484,150.508,139.66,48,60,40,135
[I 220610 13:42:08 main_exceptions:80] 0,13:42:08,51.25,13.068,358.852,357.819,29.017,0.021,-0.035,0.957,28.986,14.274,-7.557,-6.699,37.559,36.182,1024.999,False,154.369,150.606,139.147,46,57,43,131
[I 220610 13:42:12 main_exceptions:80] 0,13:42:12,51.285,13.412,358.852,357.819,28.965,0.02,-0.036,0.955,28.958,14.375,-7.865,-6.502,37.617,36.42,1024.98,False,155.251,150.585,138.563,52,65,48,152
[I 220610 13:42:15 main_exceptions:80] 0,13:42:15,51.318,13.756,358.852,357.819,28.96,0.02,-0.034,0.958,28.924,14.843,-7.678,-7.06,37.865,36.246,1024.952,False,155.343,150.542,139.067,42,52,40,120
[I 220610 13:42:19 main_exceptions:80] 0,13:42:19,51.351,14.105,358.852,357.819,28.885,0.02,-0.036,0.955,28.844,14.729,-7.509,-7.571,37.884,36.397,1024.962,False,154.319,150.431,139.019,45,57,36,124
[I 220610 13:42:22 main_exceptions:80] 0,13:42:22,51.382,14.454,358.852,357.819,28.808,0.02,-0.036,0.956,28.807,14.464,-7.76,-7.495,37.693,36.182,1024.934,False,155.017,149.705,139.052,42,53,33,113
[I 220610 13:42:26 main_exceptions:80] 0,13:42:26,51.413,14.801,358.852,357.819,28.804,0.02,-0.036,0.957,28.799,14.36,-7.885,-7.325,37.807,36.084,1025.005,False,154.564,149.751,139.659,51,63,47,149
[I 220610 13:42:29 main_exceptions:80] 0,13:42:29,51.442,15.15,358.852,357.819,28.825,0.021,-0.036,0.956,28.847,14.441,-7.643,-6.944,37.483,36.28,1024.984,False,155.368,150.115,139.368,35,45,32,97
[I 220610 13:42:33 main_exceptions:80] 0,13:42:33,51.47,15.499,358.852,357.819,28.833,0.021,-0.037,0.958,28.826,14.454,-7.649,-6.778,37.693,36.549,1024.951,False,155.145,149.794,140.015,52,65,45,149
[I 220610 13:42:36 main_exceptions:80] 0,13:42:36,51.497,15.849,358.852,357.819,28.819,0.02,-0.036,0.955,28.833,14.216,-7.795,-7.304,37.827,36.401,1024.974,False,154.912,150.031,139.894,50,63,42,143
[I 220610 13:42:40 main_exceptions:80] 0,13:42:40,51.522,16.198,358.852,357.819,28.855,0.021,-0.035,0.955,28.848,14.508,-7.587,-6.617,37.636,36.322,1024.942,False,153.963,150.381,139.164,46,58,37,127
[I 220610 13:42:43 main_exceptions:80] 0,13:42:43,51.547,16.549,358.852,357.819,28.819,0.021,-0.035,0.957,28.792,14.459,-7.682,-6.798,37.788,35.06,1024.973,False,154.265,149.905,140.059,48,60,45,140
[I 220610 13:42:47 main_exceptions:80] 0,13:42:47,51.57,16.891,358.852,357.819,28.784,0.021,-0.037,0.957,28.781,14.62,-7.844,-6.733,37.693,36.119,1024.942,False,154.884,150.26,139.567,42,54,33,115
[I 220610 13:42:50 main_exceptions:80] 0,13:42:50,51.592,17.24,358.852,357.819,28.779,0.021,-0.035,0.957,28.771,14.486,-7.776,-6.888,37.884,36.413,1024.926,False,155.684,150.649,139.527,34,45,30,94
[I 220610 13:42:54 main_exceptions:80] 0,13:42:54,51.613,17.585,358.852,357.819,28.774,0.022,-0.036,0.955,28.794,14.478,-7.911,-6.936,37.865,36.167,1024.938,False,155.092,150.181,140.712,46,58,37,127
[I 220610 13:42:57 main_exceptions:80] 0,13:42:57,51.633,17.935,358.852,357.819,28.812,0.021,-0.034,0.956,28.827,14.604,-7.899,-6.85,38.017,36.23,1024.923,False,154.539,150.58,140.721,35,63,47,95
[I 220610 13:43:01 main_exceptions:80] 0,13:43:01,51.652,18.284,358.852,357.819,28.834,0.022,-0.035,0.958,28.842,14.653,-7.879,-6.159,37.903,36.385,1024.954,False,155.47,150.896,139.085,36,46,47,102
[I 220610 13:43:04 main_exceptions:80] 0,13:43:04,51.67,18.635,358.852,357.819,28.837,0.021,-0.035,0.957,28.816,14.868,-7.642,-6.703,37.75,36.069,1024.975,False,155.922,150.851,138.842,42,52,40,119
[I 220610 13:43:08 main_exceptions:80] 0,13:43:08,51.687,18.985,358.852,357.819,28.778,0.022,-0.036,0.957,28.724,14.741,-7.408,-6.841,37.655,36.034,1024.96,False,154.224,150.777,139.442,50,61,47,144
[I 220610 13:43:11 main_exceptions:80] 0,13:43:11,51.702,19.335,358.852,357.819,28.676,0.022,-0.034,0.956,28.644,14.49,-7.516,-6.258,37.827,36.353,1024.968,False,153.888,150.797,138.164,42,52,40,118
[I 220610 13:43:15 main_exceptions:80] 0,13:43:15,51.717,19.688,358.852,357.819,28.626,0.022,-0.035,0.956,28.627,14.692,-7.887,-6.568,37.788,36.05,1024.963,False,154.587,150.858,138.997,49,61,46,143
[I 220610 13:43:19 main_exceptions:80] 0,13:43:19,51.73,20.036,358.852,357.819,28.633,0.02,-0.036,0.958,28.62,15.089,-7.825,-7.035,37.712,36.483,1024.965,False,155.412,150.322,140.338,43,60,40,123
[I 220610 13:43:22 main_exceptions:80] 0,13:43:22,51.742,20.389,358.852,357.819,28.593,0.021,-0.036,0.956,28.558,14.977,-7.68,-7.075,37.712,36.046,1024.982,False,155.144,150.548,139.556,52,64,48,149
[I 220610 13:43:26 main_exceptions:80] 0,13:43:26,51.753,20.745,358.852,357.819,28.525,0.022,-0.035,0.956,28.487,14.709,-7.594,-6.254,37.941,36.527,1024.962,False,154.28,150.207,140.565,53,66,48,153
[I 220610 13:43:29 main_exceptions:80] 0,13:43:29,51.763,21.098,358.852,357.819,28.457,0.021,-0.036,0.955,28.418,14.999,-7.648,-6.109,37.674,36.217,1024.955,False,155.308,150.267,139.803,51,64,44,145
[I 220610 13:43:33 main_exceptions:80] 0,13:43:33,51.772,21.454,358.852,357.819,28.377,0.022,-0.035,0.955,28.308,14.994,-7.003,-6.941,37.693,36.103,1024.932,False,155.868,150.503,139.502,42,52,40,119
[I 220610 13:43:36 main_exceptions:80] 0,13:43:36,51.779,21.81,358.852,357.819,28.214,0.022,-0.036,0.956,28.155,14.831,-7.295,-6.839,37.674,34.32,1024.925,False,154.756,150.632,139.779,44,56,35,132
[I 220610 13:43:40 main_exceptions:80] 0,13:43:40,51.786,22.164,358.852,357.819,28.096,0.021,-0.034,0.954,28.047,15.02,-7.37,-6.958,37.75,36.223,1024.926,False,154.915,150.419,139.699,34,45,48,95
[I 220610 13:43:43 main_exceptions:80] 0,13:43:43,51.791,22.518,358.852,357.819,27.99,0.021,-0.035,0.956,27.926,14.693,-7.167,-6.797,37.865,36.138,1024.893,False,154.866,150.26,140.425,39,49,37,111
[I 220610 13:43:47 main_exceptions:80] 0,13:43:47,51.795,22.871,358.852,357.819,27.883,0.022,-0.035,0.957,27.847,15.018,-7.393,-6.71,37.483,36.559,1024.917,False,155.425,150.666,138.712,51,63,47,147
[I 220610 13:43:50 main_exceptions:80] 0,13:43:50,51.798,23.225,358.852,357.819,27.811,0.02,-0.036,0.955,27.792,14.921,-7.549,-6.261,37.578,36.284,1024.941,False,155.619,150.411,139.383,51,64,44,145
[I 220610 13:43:54 main_exceptions:80] 0,13:43:54,51.8,23.58,358.852,357.819,27.771,0.02,-0.036,0.956,27.743,14.66,-7.351,-6.569,37.884,36.201,1024.908,False,154.172,150.606,138.81,51,63,47,147
[I 220610 13:43:58 main_exceptions:80] 0,13:43:58,51.8,23.936,358.852,357.819,27.722,0.021,-0.036,0.954,27.706,14.534,-7.401,-6.455,38.208,36.069,1024.927,False,155.486,150.516,138.203,35,46,33,99
[I 220610 13:44:01 main_exceptions:80] 0,13:44:01,51.8,24.289,358.852,357.819,27.695,0.021,-0.035,0.955,27.678,14.684,-7.33,-6.522,38.094,36.28,1024.927,False,153.701,150.318,138.133,42,53,33,114
[I 220610 13:44:04 main_exceptions:80] 0,13:44:04,51.798,24.642,358.852,357.819,27.651,0.023,-0.036,0.956,27.604,14.661,-7.102,-6.816,37.903,36.053,1024.923,False,154.781,150.034,139.656,53,65,46,151
[I 220610 13:44:08 main_exceptions:80] 0,13:44:08,51.795,24.986,358.852,357.819,27.563,0.02,-0.035,0.958,27.533,14.697,-7.128,-7.413,37.884,35.907,1024.908,False,154.648,150.019,138.131,50,63,42,142
[I 220610 13:44:12 main_exceptions:80] 0,13:44:12,51.791,25.341,358.852,357.819,27.5,0.019,-0.035,0.956,27.493,14.459,-7.405,-7.874,38.075,35.926,1024.926,False,154.091,149.908,138.8,48,59,45,139
[I 220610 13:44:15 main_exceptions:80] 0,13:44:15,51.786,25.689,358.852,357.819,27.507,0.021,-0.035,0.958,27.525,14.849,-7.675,-7.673,37.827,36.088,1024.923,False,154.725,149.801,139.672,38,49,30,102
[I 220610 13:44:19 main_exceptions:80] 0,13:44:19,51.78,26.045,358.852,357.819,27.536,0.021,-0.036,0.953,27.531,14.762,-7.432,-8.031,38.094,36.11,1024.915,False,155.249,149.951,138.985,53,65,47,151
[I 220610 13:44:22 main_exceptions:80] 0,13:44:22,51.772,26.4,358.852,357.819,27.527,0.021,-0.036,0.956,27.527,14.924,-7.55,-7.088,37.979,35.967,1024.918,False,154.11,149.67,139.428,45,56,35,122
[I 220610 13:44:26 main_exceptions:80] 0,13:44:26,51.764,26.753,358.852,357.819,27.525,0.021,-0.036,0.956,27.518,15.149,-7.408,-6.921,38.151,36.069,1024.953,False,153.162,149.223,139.211,52,65,48,151
[I 220610 13:44:29 main_exceptions:80] 0,13:44:29,51.754,27.107,358.852,357.819,27.487,0.022,-0.036,0.955,27.442,15.142,-7.296,-6.933,38.17,35.961,1024.939,False,154.06,150.248,138.537,47,59,38,124
[I 220610 13:44:33 main_exceptions:80] 0,13:44:33,51.743,27.461,358.852,357.819,27.396,0.021,-0.035,0.957,27.342,15.253,-7.161,-6.756,38.094,36.208,1024.959,False,153.496,149.761,139.822,38,48,30,101
[I 220610 13:44:36 main_exceptions:80] 0,13:44:36,51.731,27.812,358.852,357.819,27.282,0.021,-0.035,0.957,27.241,15.005,-7.286,-6.771,38.227,35.841,1024.936,False,154.072,150.065,138.78,53,66,47,152
[I 220610 13:44:40 main_exceptions:80] 0,13:44:40,51.718,28.164,358.852,357.819,27.224,0.021,-0.037,0.957,27.241,14.703,-7.716,-7.126,38.208,35.816,1024.944,False,153.72,149.936,139.963,44,56,35,120
[I 220610 13:44:43 main_exceptions:80] 0,13:44:43,51.703,28.521,358.852,357.819,27.287,0.022,-0.035,0.958,27.33,14.66,-7.476,-6.607,38.094,35.828,1024.919,False,154.568,150.244,138.098,42,53,33,112
[I 220610 13:44:47 main_exceptions:80] 0,13:44:47,51.688,28.872,358.852,357.819,27.338,0.022,-0.037,0.957,27.332,15.116,-7.397,-7.13,38.17,35.898,1024.94,False,155.087,149.855,139.441,37,47,35,105
[I 220610 13:44:50 main_exceptions:80] 0,13:44:50,51.671,29.222,358.852,357.819,27.311,0.02,-0.036,0.956,27.303,15.067,-7.549,-6.522,38.285,35.793,1024.922,False,155.778,149.864,140.038,50,61,46,143
[I 220610 13:44:54 main_exceptions:80] 0,13:44:54,51.654,29.57,358.852,357.819,27.294,0.023,-0.036,0.955,27.28,15.256,-7.646,-6.562,38.361,35.607,1024.919,False,156.043,149.912,139.603,47,59,38,131
[I 220610 13:44:58 main_exceptions:80] 0,13:44:58,51.635,29.924,358.852,357.819,27.279,0.021,-0.034,0.956,27.3,15.127,-8.019,-6.599,38.094,35.699,1024.892,False,155.385,150.202,138.679,47,58,44,135
[I 220610 13:45:01 main_exceptions:80] 0,13:45:01,51.615,30.275,358.852,357.819,27.337,0.022,-0.035,0.956,27.348,15.078,-7.582,-6.658,38.037,35.594,1024.888,False,154.992,150.071,139.674,36,46,34,100
[I 220610 13:45:05 main_exceptions:80] 0,13:45:05,51.594,30.624,358.852,357.819,27.346,0.02,-0.037,0.956,27.339,14.802,-7.482,-6.841,38.399,35.408,1024.908,False,154.666,150.068,138.828,45,57,36,124
[I 220610 13:45:08 main_exceptions:80] 0,13:45:08,51.571,30.975,358.852,357.819,27.348,0.02,-0.034,0.955,27.377,14.8,-7.8,-7.004,38.208,35.695,1024.923,False,154.907,149.894,138.637,38,48,30,101
[I 220610 13:45:12 main_exceptions:80] 0,13:45:12,51.548,31.325,358.852,357.819,27.424,0.021,-0.035,0.956,27.455,14.26,-7.322,-6.947,38.075,35.461,1024.97,False,154.545,150.121,138.193,34,45,30,93
[I 220610 13:45:15 main_exceptions:80] 0,13:45:15,51.524,31.663,358.852,357.819,27.462,0.022,-0.037,0.956,27.468,14.317,-7.282,-7.45,38.304,35.787,1024.912,False,154.398,149.945,138.791,34,44,30,93
[I 220610 13:45:19 main_exceptions:80] 0,13:45:19,51.499,32.011,358.852,357.819,27.47,0.022,-0.036,0.956,27.473,14.493,-7.523,-7.39,38.151,35.629,1024.926,False,154.282,149.793,140.083,39,49,37,111
[I 220610 13:45:22 main_exceptions:80] 0,13:45:22,51.472,32.352,358.852,357.819,27.482,0.021,-0.036,0.956,27.475,14.747,-7.495,-7.054,38.285,35.547,1024.957,False,155.59,149.837,139.305,37,47,36,105
[I 220610 13:45:26 main_exceptions:80] 0,13:45:26,51.445,32.699,358.852,357.819,27.477,0.02,-0.037,0.956,27.476,14.811,-7.539,-7.225,38.285,35.474,1024.945,False,154.763,150.188,138.355,49,60,46,141
[I 220610 13:45:29 main_exceptions:80] 0,13:45:29,51.416,33.048,358.852,357.819,27.48,0.021,-0.035,0.957,27.476,14.588,-7.238,-7.02,38.151,35.759,1024.94,False,155.209,150.91,138.684,51,63,47,146
[I 220610 13:45:33 main_exceptions:80] 0,13:45:33,51.385,33.396,358.852,357.819,27.466,0.021,-0.035,0.956,27.469,14.574,-7.287,-6.649,38.418,34.532,1024.933,False,154.775,150.433,139.468,35,63,47,95
[I 220610 13:45:36 main_exceptions:80] 0,13:45:36,51.354,33.743,358.852,357.819,27.461,0.023,-0.036,0.955,27.464,14.652,-7.411,-6.062,38.399,35.272,1024.939,False,152.428,148.298,136.631,51,63,46,148
[I 220610 13:45:40 main_exceptions:80] 0,13:45:40,51.322,34.088,358.852,357.819,27.459,0.021,-0.035,0.955,27.451,14.736,-7.253,-6.277,38.38,35.452,1024.929,False,154.163,149.943,138.96,51,64,47,150
[I 220610 13:45:43 main_exceptions:80] 0,13:45:43,51.288,34.434,358.852,357.819,27.429,0.023,-0.035,0.955,27.432,14.641,-7.64,-6.737,38.285,35.743,1024.9,False,154.876,149.378,139.357,35,46,29,95
[I 220610 13:45:47 main_exceptions:80] 0,13:45:47,51.254,34.777,358.852,357.819,27.459,0.02,-0.036,0.957,27.484,14.529,-7.665,-6.105,38.227,35.253,1024.945,False,153.918,150.529,140.056,53,65,48,152
[I 220610 13:45:50 main_exceptions:80] 0,13:45:50,51.218,35.123,358.852,357.819,27.518,0.021,-0.036,0.955,27.527,14.524,-7.475,-6.085,38.094,35.446,1024.943,False,154.83,150.436,140.45,36,46,33,99
[I 220610 13:45:54 main_exceptions:80] 0,13:45:54,51.181,35.469,358.852,357.819,27.54,0.021,-0.036,0.957,27.558,14.613,-7.505,-6.752,38.17,35.522,1024.905,False,155.973,150.592,139.842,42,62,41,120
[I 220610 13:45:57 main_exceptions:80] 0,13:45:57,51.143,35.814,358.852,357.819,27.571,0.021,-0.036,0.956,27.601,14.47,-7.629,-6.061,38.227,35.427,1024.912,False,155.416,150.494,139.73,38,49,30,102
[I 220610 13:46:01 main_exceptions:80] 0,13:46:01,51.104,36.161,358.852,357.819,27.637,0.022,-0.036,0.956,27.686,14.171,-7.559,-5.847,38.037,35.613,1024.935,False,155.824,150.135,141.003,53,66,47,152
[I 220610 13:46:05 main_exceptions:80] 0,13:46:05,51.064,36.504,358.852,357.819,27.721,0.021,-0.035,0.954,27.747,14.413,-7.659,-6.071,38.132,35.768,1024.945,False,155.941,150.703,139.542,43,53,40,122
[I 220610 13:46:08 main_exceptions:80] 0,13:46:08,51.023,36.847,358.852,357.819,27.774,0.021,-0.035,0.957,27.779,14.988,-7.481,-7.017,38.38,35.62,1024.934,False,154.849,150.428,140.104,53,66,47,153
[I 220610 13:46:12 main_exceptions:80] 0,13:46:12,50.98,37.187,358.852,357.819,27.762,0.022,-0.034,0.959,27.784,14.623,-7.874,-6.761,38.113,35.607,1024.969,False,155.785,150.274,139.852,37,48,46,99
[I 220610 13:46:15 main_exceptions:80] 0,13:46:15,50.937,37.53,358.852,357.819,27.819,0.022,-0.037,0.957,27.829,14.711,-7.542,-6.589,38.037,35.673,1024.954,False,154.684,149.8,139.634,35,45,33,98
[I 220610 13:46:19 main_exceptions:80] 0,13:46:19,50.892,37.871,358.852,357.819,27.824,0.021,-0.035,0.957,27.824,14.587,-7.599,-7.165,38.266,35.812,1024.981,False,154.265,150.946,138.297,42,53,44,114
[I 220610 13:46:22 main_exceptions:80] 0,13:46:22,50.847,38.211,358.852,357.819,27.84,0.021,-0.036,0.958,27.871,14.669,-7.619,-7.187,37.884,35.616,1024.958,False,154.859,150.563,140.268,36,46,47,100
[I 220610 13:46:26 main_exceptions:80] 0,13:46:26,50.8,38.549,358.852,357.819,27.879,0.022,-0.036,0.96,27.884,14.705,-7.519,-6.886,38.189,35.727,1024.98,False,155.63,150.558,139.135,46,57,44,132
[I 220610 13:46:29 main_exceptions:80] 0,13:46:29,50.752,38.887,358.852,357.819,27.873,0.022,-0.036,0.954,27.858,14.987,-7.716,-6.899,38.189,36.094,1024.928,False,155.536,150.364,140.271,52,65,35,150
[I 220610 13:46:33 main_exceptions:80] 0,13:46:33,50.704,39.223,358.852,357.819,27.857,0.021,-0.035,0.952,27.843,14.557,-7.305,-6.555,38.418,35.695,1024.922,False,154.52,150.704,139.321,53,65,48,153
[I 220610 13:46:36 main_exceptions:80] 0,13:46:36,50.654,39.558,358.852,357.819,27.816,0.021,-0.036,0.957,27.781,14.728,-7.359,-6.702,38.113,35.68,1024.915,False,155.125,150.752,138.981,43,54,34,117
[I 220610 13:46:40 main_exceptions:80] 0,13:46:40,50.603,39.896,358.852,357.819,27.76,0.022,-0.035,0.957,27.747,14.81,-7.487,-6.389,38.189,35.873,1024.925,False,153.804,150.557,140.436,35,45,48,98
[I 220610 13:46:43 main_exceptions:80] 0,13:46:43,50.552,40.228,358.852,357.819,27.735,0.021,-0.037,0.96,27.737,14.746,-7.482,-6.68,38.304,35.563,1024.923,False,155.902,150.51,139.55,48,59,45,137
[I 220610 13:46:47 main_exceptions:80] 0,13:46:47,50.498,40.564,358.852,357.819,27.728,0.021,-0.036,0.959,27.725,14.866,-7.671,-6.769,38.285,35.885,1024.953,False,155.02,150.342,139.982,53,66,48,154
[I 220610 13:46:51 main_exceptions:80] 0,13:46:51,50.444,40.899,358.852,357.819,27.723,0.021,-0.036,0.96,27.7,14.632,-7.267,-6.871,38.132,35.629,1024.945,False,154.293,150.652,138.383,43,53,39,123
[I 220610 13:46:54 main_exceptions:80] 0,13:46:54,50.389,41.231,358.852,357.819,27.68,0.022,-0.037,0.955,27.676,14.97,-7.527,-7.804,38.247,35.708,1024.952,False,154.379,150.43,138.73,53,44,30,153
[I 220610 13:46:58 main_exceptions:80] 0,13:46:58,50.334,41.562,358.852,357.819,27.665,0.022,-0.037,0.958,27.646,14.997,-7.6,-8.347,38.456,35.869,1024.938,False,154.403,150.324,140.196,43,54,33,116
[I 220610 13:47:01 main_exceptions:80] 0,13:47:01,50.277,41.887,358.852,357.819,27.641,0.022,-0.036,0.958,27.626,15.105,-7.642,-7.734,38.037,35.632,1024.899,False,155.129,150.398,141.096,47,58,37,129
[I 220610 13:47:05 main_exceptions:80] 0,13:47:05,50.219,42.219,358.852,357.819,27.626,0.022,-0.035,0.957,27.665,14.955,-7.987,-7.512,38.075,35.575,1024.947,False,154.94,149.912,139.981,51,63,47,147
[I 220610 13:47:08 main_exceptions:80] 0,13:47:08,50.16,42.55,358.852,357.819,27.71,0.021,-0.037,0.958,27.76,14.84,-7.984,-6.825,38.151,35.616,1024.974,False,154.685,150.661,138.885,52,65,45,149
[I 220610 13:47:12 main_exceptions:80] 0,13:47:12,50.1,42.878,358.852,357.819,27.797,0.021,-0.036,0.958,27.794,15.138,-7.701,-6.879,38.304,35.654,1024.951,False,154.86,150.509,139.071,49,61,46,143
[I 220610 13:47:15 main_exceptions:80] 0,13:47:15,50.039,43.204,358.852,357.819,27.795,0.022,-0.036,0.955,27.815,14.84,-7.852,-6.757,38.227,35.974,1024.961,False,154.628,150.119,140.535,40,50,38,112
[I 220610 13:47:19 main_exceptions:80] 0,13:47:19,49.977,43.53,358.852,357.819,27.843,0.02,-0.036,0.954,27.878,14.801,-7.91,-6.679,38.075,35.775,1024.97,False,155.753,149.915,139.227,35,62,47,95
[I 220610 13:47:22 main_exceptions:80] 0,13:47:22,49.914,43.854,358.852,357.819,27.908,0.023,-0.035,0.958,27.941,14.795,-8.066,-7.286,38.323,35.854,1024.919,False,152.054,147.972,138.67,38,65,45,108
[I 220610 13:47:26 main_exceptions:80] 0,13:47:26,49.85,44.178,358.852,357.819,27.982,0.023,-0.036,0.958,27.997,14.803,-7.712,-6.696,37.903,35.803,1024.909,False,155.348,150.187,137.645,38,49,30,101
[I 220610 13:47:29 main_exceptions:80] 0,13:47:29,49.786,44.499,358.852,357.819,28.006,0.023,-0.037,0.959,28.025,14.766,-7.706,-6.331,38.208,35.62,1024.924,False,153.756,150.198,138.643,41,61,41,118
[I 220610 13:47:33 main_exceptions:80] 0,13:47:33,49.72,44.821,358.852,357.819,28.023,0.022,-0.036,0.958,28.01,15.31,-7.753,-6.148,37.998,35.784,1024.931,False,155.15,150.036,139.192,52,65,31,152
[I 220610 13:47:36 main_exceptions:80] 0,13:47:36,49.652,45.144,358.852,357.819,27.98,0.021,-0.035,0.958,27.95,15.057,-7.778,-5.569,37.769,35.775,1024.914,False,154.705,150.333,140.407,43,54,41,124
[I 220610 13:47:40 main_exceptions:80] 0,13:47:40,49.584,45.467,358.852,357.819,27.947,0.021,-0.035,0.959,27.961,14.864,-7.912,-6.375,37.884,34.617,1024.89,False,155.702,150.026,141.078,34,44,30,94
[I 220610 13:47:43 main_exceptions:80] 0,13:47:43,49.517,45.779,358.852,357.819,27.984,0.021,-0.035,0.959,27.999,14.649,-7.571,-6.267,38.037,35.733,1024.892,False,155.013,150.4,139.662,52,64,44,147
[I 220610 13:47:47 main_exceptions:80] 0,13:47:47,49.448,46.093,358.852,357.819,27.988,0.022,-0.036,0.957,27.967,14.782,-7.483,-6.401,38.132,35.873,1024.947,False,154.758,150.45,141.014,49,52,39,135
[I 220610 13:47:50 main_exceptions:80] 0,13:47:50,49.377,46.411,358.852,357.819,27.943,0.022,-0.035,0.957,27.917,14.851,-7.398,-5.933,38.075,35.822,1024.973,False,154.934,150.568,139.899,36,66,48,99
[I 220610 13:47:54 main_exceptions:80] 0,13:47:54,49.306,46.728,358.852,357.819,27.881,0.021,-0.037,0.957,27.858,14.718,-7.548,-6.397,38.266,35.933,1024.915,False,155.177,150.339,140.367,35,46,29,95
[I 220610 13:47:57 main_exceptions:80] 0,13:47:57,49.232,47.047,358.852,357.819,27.85,0.022,-0.036,0.956,27.835,14.869,-7.43,-5.982,38.399,35.433,1024.944,False,155.461,150.368,140.034,49,62,41,139
[I 220610 13:48:01 main_exceptions:80] 0,13:48:01,49.159,47.362,358.852,357.819,27.801,0.021,-0.035,0.956,27.772,14.78,-7.636,-6.135,38.399,35.775,1024.922,False,154.766,150.417,140.18,40,50,38,114
[I 220610 13:48:04 main_exceptions:80] 0,13:48:04,49.086,47.665,358.852,357.819,27.775,0.022,-0.036,0.956,27.788,14.724,-7.785,-7.045,38.266,35.825,1024.938,False,155.676,150.688,138.343,34,45,30,94
[I 220610 13:48:08 main_exceptions:80] 0,13:48:08,49.011,47.977,358.852,357.819,27.805,0.021,-0.035,0.956,27.802,15.019,-7.695,-6.823,38.151,35.784,1024.931,False,155.246,150.561,139.477,35,46,29,95
[I 220610 13:48:11 main_exceptions:80] 0,13:48:11,48.935,48.291,358.852,357.819,27.808,0.022,-0.035,0.958,27.843,14.661,-7.843,-6.949,37.979,35.857,1024.903,False,155.19,150.337,139.459,49,61,39,136
[I 220610 13:48:15 main_exceptions:80] 0,13:48:15,48.858,48.6,358.852,357.819,27.872,0.022,-0.035,0.955,27.884,15.025,-7.863,-6.504,38.132,35.572,1024.892,False,155.438,150.219,138.36,41,51,39,136
[I 220610 13:48:18 main_exceptions:80] 0,13:48:18,48.779,48.91,358.852,357.819,27.896,0.023,-0.035,0.957,27.911,14.815,-7.785,-6.555,38.132,35.629,1024.932,False,155.154,149.93,139.485,34,45,32,96
[I 220610 13:48:22 main_exceptions:80] 0,13:48:22,48.7,49.22,358.852,357.819,27.931,0.022,-0.036,0.957,27.945,14.716,-7.598,-6.852,37.96,35.484,1024.915,False,154.842,149.933,139.083,48,51,31,139
[I 220610 13:48:26 main_exceptions:80] 0,13:48:26,48.621,49.525,358.852,357.819,27.937,0.022,-0.035,0.956,27.919,14.823,-7.5,-7.072,38.247,35.797,1024.936,False,154.901,150.149,138.355,47,59,37,129
[I 220610 13:48:29 main_exceptions:80] 0,13:48:29,48.539,49.834,358.852,357.819,27.901,0.023,-0.035,0.954,27.892,14.782,-7.691,-7.099,38.266,35.869,1024.906,False,154.434,150.057,138.99,52,65,31,152
[I 220610 13:48:33 main_exceptions:80] 0,13:48:33,48.456,50.144,358.852,357.819,27.902,0.022,-0.035,0.956,27.918,14.816,-7.776,-6.51,38.151,35.607,1024.89,False,155.271,150.358,138.185,39,64,43,112
[I 220610 13:48:36 main_exceptions:80] 0,13:48:36,48.374,50.447,358.852,357.819,27.926,0.02,-0.036,0.957,27.92,14.824,-7.591,-6.797,38.17,35.632,1024.906,False,155.002,150.23,138.675,37,47,36,106
[I 220610 13:48:40 main_exceptions:80] 0,13:48:40,48.291,50.749,358.852,357.819,27.912,0.022,-0.036,0.955,27.901,14.717,-7.418,-6.71,38.208,35.778,1024.894,False,154.784,150.214,139.592,34,45,29,93
[I 220610 13:48:43 main_exceptions:80] 0,13:48:43,48.206,51.053,358.852,357.819,27.881,0.022,-0.037,0.959,27.857,14.744,-7.477,-6.563,38.017,35.708,1024.943,False,155.332,150.282,139.57,40,51,39,115
[I 220610 13:48:47 main_exceptions:80] 0,13:48:47,48.12,51.358,358.852,357.819,27.84,0.021,-0.036,0.958,27.844,14.371,-7.468,-7.188,38.037,35.493,1024.92,False,153.538,150.063,138.766,36,47,29,98
[I 220610 13:48:50 main_exceptions:80] 0,13:48:50,48.034,51.658,358.852,357.819,27.857,0.022,-0.037,0.957,27.878,14.473,-7.543,-6.455,38.189,35.948,1024.891,False,155.008,150.285,139.247,51,64,44,147
[I 220610 13:48:54 main_exceptions:80] 0,13:48:54,47.947,51.958,358.852,357.819,27.888,0.021,-0.036,0.961,27.901,14.61,-7.65,-6.648,38.113,35.68,1024.885,False,154.967,150.345,138.759,38,48,30,101
[I 220610 13:48:57 main_exceptions:80] 0,13:48:57,47.858,52.26,358.852,357.819,27.912,0.021,-0.035,0.957,27.909,14.673,-7.433,-6.519,38.132,35.616,1024.867,False,153.833,149.804,137.616,51,63,47,148
[I 220610 13:49:01 main_exceptions:80] 0,13:49:01,47.767,52.563,358.852,357.819,27.889,0.022,-0.035,0.957,27.856,14.704,-7.352,-6.807,38.17,35.654,1024.866,False,155.078,150.154,137.892,36,46,29,96
[I 220610 13:49:04 main_exceptions:80] 0,13:49:04,47.677,52.861,358.852,357.819,27.828,0.021,-0.035,0.957,27.805,14.378,-7.254,-6.98,37.998,35.512,1024.91,False,154.566,150.069,138.855,38,48,36,107
[I 220610 13:49:08 main_exceptions:80] 0,13:49:08,47.586,53.156,358.852,357.819,27.798,0.02,-0.037,0.955,27.822,14.317,-7.512,-6.805,38.227,35.461,1024.88,False,155.411,149.85,139.453,51,63,47,148
[I 220610 13:49:11 main_exceptions:80] 0,13:49:11,47.495,53.45,358.852,357.819,27.839,0.022,-0.036,0.955,27.848,14.439,-7.608,-6.443,38.227,35.408,1024.895,False,154.573,149.486,139.836,43,53,41,123
[I 220610 13:49:15 main_exceptions:80] 0,13:49:15,47.405,53.736,358.852,357.819,27.869,0.021,-0.035,0.956,27.892,14.436,-7.574,-6.806,38.304,35.661,1024.881,False,154.831,149.915,138.65,48,60,45,140
[I 220610 13:49:18 main_exceptions:80] 0,13:49:18,47.313,54.026,358.852,357.819,27.907,0.021,-0.036,0.956,27.918,14.506,-7.481,-7.596,38.132,35.49,1024.881,False,154.214,149.872,140.267,39,49,37,111
[I 220610 13:49:22 main_exceptions:80] 0,13:49:22,47.219,54.316,358.852,357.819,27.914,0.023,-0.036,0.956,27.899,14.292,-7.332,-6.999,38.132,35.468,1024.872,False,154.679,150.27,138.545,34,45,29,93
[I 220610 13:49:26 main_exceptions:80] 0,13:49:26,47.124,54.61,358.852,357.819,27.899,0.023,-0.036,0.956,27.913,14.474,-7.599,-6.995,38.094,35.585,1024.842,False,153.45,149.96,138.463,35,65,47,99
[I 220610 13:49:29 main_exceptions:80] 0,13:49:29,47.028,54.898,358.852,357.819,27.93,0.02,-0.035,0.957,27.969,14.277,-7.822,-7.142,38.17,35.733,1024.845,False,154.426,150.135,138.616,47,59,45,137
[I 220610 13:49:33 main_exceptions:80] 0,13:49:33,46.931,55.188,358.852,357.819,28.021,0.023,-0.036,0.958,28.066,14.534,-7.804,-7.099,38.189,35.62,1024.863,False,153.668,149.949,137.771,34,44,31,94
[I 220610 13:49:36 main_exceptions:80] 0,13:49:36,46.836,55.469,358.852,357.819,28.1,0.021,-0.035,0.956,28.146,14.575,-7.963,-6.825,38.113,35.746,1024.892,False,154.794,149.697,139.316,53,66,46,152
[I 220610 13:49:40 main_exceptions:80] 0,13:49:40,46.74,55.751,358.852,357.819,28.181,0.022,-0.036,0.957,28.185,14.834,-7.663,-6.753,37.998,35.392,1024.9,False,154.452,149.858,138.595,34,45,32,96
[I 220610 13:49:43 main_exceptions:80] 0,13:49:43,46.641,56.036,358.852,357.819,28.172,0.021,-0.036,0.958,28.157,15.071,-7.605,-6.563,38.247,34.674,1024.876,False,154.5,149.806,138.875,38,49,30,102
[I 220610 13:49:47 main_exceptions:80] 0,13:49:47,46.541,56.32,358.852,357.819,28.124,0.022,-0.035,0.958,28.093,14.925,-7.557,-6.347,38.132,35.724,1024.835,False,154.338,149.351,140.15,50,63,42,142
[I 220610 13:49:50 main_exceptions:80] 0,13:49:50,46.444,56.595,358.852,357.819,28.059,0.022,-0.036,0.957,28.049,14.734,-7.471,-5.906,38.056,35.831,1024.866,False,153.28,149.96,137.525,45,56,43,131
[I 220610 13:49:54 main_exceptions:80] 0,13:49:54,46.344,56.872,358.852,357.819,28.034,0.02,-0.035,0.957,28.049,14.527,-7.768,-6.284,38.247,35.642,1024.827,False,153.41,149.188,138.836,41,51,39,117
[I 220610 13:49:57 main_exceptions:80] 0,13:49:57,46.244,57.15,358.852,357.819,28.077,0.022,-0.037,0.956,28.12,14.452,-7.834,-7.093,38.056,35.515,1024.871,False,153.573,149.24,136.943,52,65,45,149
[I 220610 13:50:01 main_exceptions:80] 0,13:50:01,46.143,57.426,358.852,357.819,28.147,0.021,-0.037,0.958,28.147,14.949,-7.803,-6.897,38.533,35.699,1024.842,False,154.942,149.869,137.793,52,65,46,151
[I 220610 13:50:04 main_exceptions:80] 0,13:50:04,46.039,57.705,358.852,357.819,28.14,0.021,-0.035,0.957,28.145,14.611,-7.807,-6.788,38.132,35.582,1024.837,False,154.965,149.575,139.062,50,62,46,144
[I 220610 13:50:08 main_exceptions:80] 0,13:50:08,45.936,57.979,358.852,357.819,28.165,0.021,-0.036,0.956,28.184,14.588,-7.712,-6.421,38.208,35.455,1024.863,False,153.625,149.885,137.047,45,56,43,130
[I 220610 13:50:11 main_exceptions:80] 0,13:50:11,45.833,58.252,358.852,357.819,28.184,0.021,-0.036,0.955,28.156,14.459,-7.283,-6.366,38.094,35.544,1024.853,False,153.957,149.835,139.401,37,47,35,105
[I 220610 13:50:14 main_exceptions:80] 0,13:50:14,45.729,58.522,358.852,357.819,28.139,0.021,-0.038,0.956,28.172,14.47,-7.87,-6.274,38.17,35.534,1024.847,False,154.782,149.688,138.921,51,64,44,147
[I 220610 13:50:18 main_exceptions:80] 0,13:50:18,45.627,58.786,358.852,357.819,28.21,0.021,-0.036,0.958,28.26,14.198,-7.815,-6.786,38.361,35.62,1024.843,False,154.584,149.69,138.855,40,51,31,138
[I 220610 13:50:21 main_exceptions:80] 0,13:50:21,45.521,59.057,358.852,357.819,28.293,0.022,-0.037,0.959,28.292,14.546,-7.566,-7.068,37.903,35.714,1024.847,False,154.005,149.845,137.926,49,62,41,140
[I 220610 13:50:25 main_exceptions:80] 0,13:50:25,45.414,59.327,358.852,357.819,28.278,0.022,-0.035,0.959,28.246,14.406,-7.266,-6.98,38.017,35.771,1024.85,False,153.964,149.718,137.633,52,64,47,151
[I 220610 13:50:28 main_exceptions:80] 0,13:50:28,45.306,59.596,358.852,357.819,28.214,0.021,-0.036,0.958,28.197,14.416,-7.54,-6.943,38.285,35.446,1024.887,False,153.913,149.842,138.494,49,61,46,142
[I 220610 13:50:32 main_exceptions:80] 0,13:50:32,45.197,59.867,358.852,357.819,28.207,0.019,-0.035,0.959,28.224,14.427,-7.604,-6.407,37.979,35.936,1024.9,False,153.807,149.534,139.636,52,65,46,101
[I 220610 13:50:35 main_exceptions:80] 0,13:50:35,45.089,60.132,358.852,357.819,28.228,0.022,-0.035,0.957,28.236,14.522,-7.773,-6.761,37.903,35.544,1024.928,False,154.613,149.474,139.714,52,65,47,151
[I 220610 13:50:39 main_exceptions:80] 0,13:50:39,44.978,60.399,358.852,357.819,28.252,0.022,-0.037,0.958,28.264,14.226,-7.605,-6.716,37.998,35.689,1024.918,False,153.539,149.728,138.351,42,54,42,116
[I 220610 13:50:43 main_exceptions:80] 0,13:50:43,44.868,60.665,358.852,357.819,28.279,0.022,-0.037,0.961,28.294,13.657,-7.313,-6.349,37.922,35.743,1024.891,False,153.214,149.98,138.08,51,64,44,147
[I 220610 13:50:46 main_exceptions:80] 0,13:50:46,44.756,60.93,358.852,357.819,28.307,0.023,-0.036,0.957,28.33,14.073,-7.653,-5.967,38.342,35.733,1024.906,False,153.711,149.767,138.165,50,62,46,145
[I 220610 13:50:49 main_exceptions:80] 0,13:50:49,44.644,61.194,358.852,357.819,28.349,0.022,-0.035,0.957,28.339,14.178,-7.303,-6.098,38.247,35.427,1024.897,False,154.842,149.507,139.638,51,64,44,148
[I 220610 13:50:53 main_exceptions:80] 0,13:50:53,44.533,61.452,358.852,357.819,28.327,0.021,-0.038,0.958,28.338,14.328,-7.572,-6.269,38.075,34.772,1024.893,False,153.837,149.726,139.433,36,46,34,102
[I 220610 13:50:57 main_exceptions:80] 0,13:50:57,44.42,61.711,358.852,357.819,28.342,0.021,-0.036,0.959,28.361,14.353,-7.759,-6.308,38.17,35.654,1024.87,False,154.343,150.109,137.668,50,62,47,147
[I 220610 13:51:00 main_exceptions:80] 0,13:51:00,44.306,61.971,358.852,357.819,28.386,0.021,-0.035,0.957,28.398,14.651,-7.786,-6.769,38.151,35.205,1024.907,False,155.224,149.597,140.003,51,63,43,144
[I 220610 13:51:03 main_exceptions:80] 0,13:51:03,44.191,62.23,358.852,357.819,28.414,0.02,-0.036,0.957,28.418,14.344,-7.612,-6.8,38.227,35.424,1024.854,False,155.019,149.799,137.645,51,64,47,150
[I 220610 13:51:07 main_exceptions:80] 0,13:51:07,44.079,62.481,358.852,357.819,28.424,0.02,-0.036,0.955,28.464,14.48,-7.98,-6.268,38.514,35.518,1024.867,False,153.642,149.7,138.907,52,66,33,152
[I 220610 13:51:10 main_exceptions:80] 0,13:51:10,43.963,62.739,358.852,357.819,28.494,0.022,-0.036,0.957,28.506,14.395,-7.702,-6.456,38.189,35.525,1024.877,False,154.447,149.525,138.273,49,61,46,143
[I 220610 13:51:14 main_exceptions:80] 0,13:51:14,43.846,62.996,358.852,357.819,28.507,0.021,-0.035,0.957,28.498,14.585,-7.853,-6.056,38.094,35.499,1024.867,False,154.521,149.421,140.403,52,46,34,149
[I 220610 13:51:17 main_exceptions:80] 0,13:51:17,43.728,63.252,358.852,357.819,28.511,0.021,-0.035,0.956,28.544,14.495,-7.966,-6.368,38.227,35.499,1024.849,False,153.154,150.237,138.755,46,57,43,132
[I 220610 13:51:21 main_exceptions:80] 0,13:51:21,43.612,63.501,358.852,357.819,28.577,0.023,-0.038,0.956,28.612,14.165,-7.714,-7.0,38.304,35.259,1024.849,False,154.916,149.792,139.399,39,50,31,106
[I 220610 13:51:24 main_exceptions:80] 0,13:51:24,43.495,63.751,358.852,357.819,28.63,0.021,-0.037,0.954,28.631,14.513,-7.681,-6.967,38.247,35.705,1024.885,False,153.695,150.401,137.757,41,62,41,119
[I 220610 13:51:28 main_exceptions:80] 0,13:51:28,43.377,64.001,358.852,357.819,28.624,0.022,-0.035,0.957,28.602,14.552,-7.348,-5.904,38.075,35.503,1024.891,False,155.066,150.24,138.437,36,46,34,101
[I 220610 13:51:31 main_exceptions:80] 0,13:51:31,43.258,64.25,358.852,357.819,28.559,0.022,-0.036,0.958,28.519,14.634,-7.495,-6.418,38.304,35.645,1024.868,False,153.897,150.261,138.381,50,63,47,147
[I 220610 13:51:35 main_exceptions:80] 0,13:51:35,43.136,64.501,358.852,357.819,28.497,0.021,-0.037,0.957,28.473,14.532,-7.456,-6.418,38.189,35.427,1024.886,False,153.821,150.024,139.217,34,45,31,96
[I 220610 13:51:38 main_exceptions:80] 0,13:51:38,43.015,64.75,358.852,357.819,28.437,0.02,-0.037,0.957,28.4,14.598,-7.531,-6.276,38.208,35.629,1024.892,False,154.734,149.654,139.957,42,53,41,122
[I 220610 13:51:42 main_exceptions:80] 0,13:51:42,42.898,64.989,358.852,357.819,28.379,0.021,-0.035,0.958,28.361,14.808,-7.641,-6.355,37.941,35.556,1024.917,False,153.587,149.759,138.573,43,55,34,118
[I 220610 13:51:45 main_exceptions:80] 0,13:51:45,42.775,65.237,358.852,357.819,28.345,0.02,-0.036,0.958,28.335,14.584,-7.568,-5.92,38.132,35.215,1024.899,False,155.351,150.113,138.203,40,51,31,108
[I 220610 13:51:49 main_exceptions:80] 0,13:51:49,42.652,65.484,358.852,357.819,28.332,0.021,-0.036,0.957,28.358,14.539,-7.833,-6.534,38.151,35.471,1024.94,False,156.613,149.488,139.24,34,45,29,93
[I 220610 13:51:53 main_exceptions:80] 0,13:51:53,42.528,65.729,358.852,357.819,28.374,0.022,-0.036,0.959,28.375,14.711,-7.604,-6.479,38.094,35.452,1024.89,False,154.532,150.178,138.042,36,46,33,100
[I 220610 13:51:56 main_exceptions:80] 0,13:51:56,42.403,65.975,358.852,357.819,28.362,0.023,-0.036,0.959,28.364,14.438,-7.629,-6.906,38.017,35.699,1024.921,False,154.851,150.147,137.909,39,49,37,110
[I 220610 13:52:00 main_exceptions:80] 0,13:52:00,42.278,66.217,358.852,357.819,28.361,0.023,-0.036,0.956,28.341,14.398,-7.359,-6.955,38.151,35.518,1024.926,False,154.205,149.967,139.69,34,44,30,93
[I 220610 13:52:03 main_exceptions:80] 0,13:52:03,42.154,66.458,358.852,357.819,28.323,0.021,-0.036,0.954,28.355,14.252,-7.92,-7.061,38.285,35.588,1024.922,False,156.545,150.19,138.8,44,55,34,119
[I 220610 13:52:06 main_exceptions:80] 0,13:52:06,42.031,66.692,358.852,357.819,28.392,0.023,-0.035,0.957,28.394,14.427,-7.589,-6.692,38.361,35.73,1024.932,False,155.324,150.315,138.714,36,47,29,98
[I 220610 13:52:10 main_exceptions:80] 0,13:52:10,41.906,66.93,358.852,357.819,28.394,0.022,-0.036,0.955,28.365,14.49,-7.222,-6.33,38.514,35.259,1024.893,False,154.469,150.035,139.077,47,59,45,138
[I 220610 13:52:13 main_exceptions:80] 0,13:52:13,41.779,67.168,358.852,357.819,28.318,0.022,-0.036,0.956,28.274,14.925,-7.473,-6.663,38.266,35.626,1024.851,False,155.439,150.063,139.245,49,62,41,139
[I 220610 13:52:17 main_exceptions:80] 0,13:52:17,41.654,67.402,358.852,357.819,28.235,0.021,-0.035,0.957,28.21,14.649,-7.345,-6.785,38.189,35.496,1024.891,False,155.238,150.106,138.893,47,59,38,126
[I 220610 13:52:20 main_exceptions:80] 0,13:52:20,41.526,67.639,358.852,357.819,28.168,0.021,-0.037,0.958,28.152,14.288,-7.456,-6.582,38.132,35.544,1024.906,False,154.221,150.081,139.265,51,64,44,147
[I 220610 13:52:24 main_exceptions:80] 0,13:52:24,41.399,67.871,358.852,357.819,28.147,0.021,-0.035,0.957,28.157,14.341,-7.709,-6.935,38.094,35.443,1024.884,False,154.919,150.303,138.631,40,51,38,115
[I 220610 13:52:27 main_exceptions:80] 0,13:52:27,41.27,68.106,358.852,357.819,28.192,0.021,-0.036,0.955,28.206,14.642,-7.694,-6.658,38.132,35.667,1024.881,False,154.23,150.47,138.275,35,45,33,98
[I 220610 13:52:31 main_exceptions:80] 0,13:52:31,41.141,68.338,358.852,357.819,28.209,0.022,-0.036,0.955,28.21,14.803,-7.794,-6.795,38.476,35.74,1024.891,False,154.022,149.847,139.122,34,44,30,94
[I 220610 13:52:34 main_exceptions:80] 0,13:52:34,41.011,68.57,358.852,357.819,28.231,0.021,-0.035,0.957,28.272,14.404,-7.913,-6.743,37.884,35.582,1024.884,False,154.3,149.871,139.375,39,50,30,104
[I 220610 13:52:38 main_exceptions:80] 0,13:52:38,40.884,68.797,358.852,357.819,28.321,0.022,-0.035,0.954,28.391,14.391,-7.996,-7.381,38.151,35.61,1024.891,False,153.592,150.078,137.681,35,45,33,99
[I 220610 13:52:41 main_exceptions:80] 0,13:52:41,40.753,69.027,358.852,357.819,28.439,0.022,-0.037,0.957,28.482,14.44,-7.96,-6.453,38.399,35.898,1024.92,False,154.047,149.472,140.035,36,46,29,147
[I 220610 13:52:45 main_exceptions:80] 0,13:52:45,40.622,69.256,358.852,357.819,28.518,0.023,-0.037,0.958,28.537,14.635,-7.841,-6.793,37.846,35.626,1024.951,False,154.894,149.638,138.975,39,50,31,105
[I 220610 13:52:48 main_exceptions:80] 0,13:52:48,40.488,69.486,358.852,357.819,28.542,0.021,-0.036,0.956,28.529,14.978,-7.73,-7.125,38.113,35.61,1024.958,False,153.611,149.779,138.699,35,45,32,97
[I 220610 13:52:52 main_exceptions:80] 0,13:52:52,40.357,69.712,358.852,357.819,28.496,0.023,-0.036,0.954,28.468,14.879,-7.796,-6.948,37.998,35.73,1024.961,False,155.066,149.516,140.037,34,65,47,95
[I 220610 13:52:55 main_exceptions:80] 0,13:52:55,40.224,69.938,358.852,357.819,28.453,0.021,-0.036,0.955,28.421,14.907,-7.48,-7.208,37.827,35.509,1024.915,False,155.224,150.042,138.218,51,63,47,147
[I 220610 13:52:59 main_exceptions:80] 0,13:52:59,40.092,70.163,358.852,357.819,28.378,0.021,-0.035,0.957,28.342,15.021,-7.662,-7.453,37.998,35.721,1024.929,False,154.773,149.768,140.774,41,52,32,112
[I 220610 13:53:02 main_exceptions:80] 0,13:53:02,39.959,70.385,358.852,357.819,28.315,0.021,-0.035,0.957,28.289,14.881,-7.64,-6.856,38.056,35.667,1024.928,False,155.497,150.229,138.505,47,59,38,130
[I 220610 13:53:06 main_exceptions:80] 0,13:53:06,39.823,70.611,358.852,357.819,28.258,0.021,-0.036,0.956,28.216,15.004,-7.363,-6.174,37.884,35.512,1024.899,False,155.351,149.851,140.156,36,46,34,101
[I 220610 13:53:09 main_exceptions:80] 0,13:53:09,39.689,70.833,358.852,357.819,28.16,0.022,-0.036,0.956,28.117,14.988,-7.512,-5.751,38.017,35.559,1024.938,False,153.77,150.123,139.054,34,44,30,94
[I 220610 13:53:13 main_exceptions:80] 0,13:53:13,39.554,71.053,358.852,357.819,28.086,0.021,-0.035,0.955,28.079,15.115,-7.835,-6.347,38.075,36.046,1024.872,False,154.203,149.912,139.459,34,45,30,94
[I 220610 13:53:17 main_exceptions:80] 0,13:53:17,39.417,71.276,358.852,357.819,28.079,0.021,-0.034,0.958,28.097,14.97,-7.971,-6.523,37.96,35.547,1024.93,False,155.203,149.662,139.897,46,58,44,134
[I 220610 13:53:20 main_exceptions:80] 0,13:53:20,39.28,71.498,358.852,357.819,28.113,0.021,-0.035,0.957,28.112,14.897,-7.787,-6.372,38.037,35.525,1024.925,False,154.017,149.642,139.44,36,46,34,103
[I 220610 13:53:24 main_exceptions:80] 0,13:53:24,39.144,71.716,358.852,357.819,28.108,0.022,-0.036,0.956,28.108,14.693,-7.669,-6.355,37.941,35.85,1024.915,False,154.567,150.249,138.361,34,44,30,94
[I 220610 13:53:27 main_exceptions:80] 0,13:53:27,39.006,71.934,358.852,357.819,28.112,0.02,-0.037,0.955,28.115,14.623,-7.669,-6.556,37.731,35.582,1024.896,False,155.123,150.013,139.007,47,58,44,136
[I 220610 13:53:30 main_exceptions:80] 0,13:53:30,38.867,72.153,358.852,357.819,28.117,0.021,-0.036,0.955,28.115,14.551,-7.554,-6.564,38.094,35.673,1024.916,False,154.206,150.266,138.413,53,66,46,152
[I 220610 13:53:34 main_exceptions:80] 0,13:53:34,38.732,72.365,358.852,357.819,28.113,0.02,-0.035,0.955,28.116,14.239,-7.441,-6.378,37.941,35.778,1024.931,False,154.887,150.152,138.231,45,55,42,128
[I 220610 13:53:38 main_exceptions:80] 0,13:53:38,38.593,72.582,358.852,357.819,28.126,0.022,-0.036,0.956,28.135,14.548,-7.652,-7.249,38.132,35.711,1024.919,False,155.098,150.148,139.041,53,66,48,154
[I 220610 13:53:41 main_exceptions:80] 0,13:53:41,38.453,72.797,358.852,357.819,28.15,0.022,-0.035,0.958,28.156,14.845,-7.571,-7.372,37.693,35.424,1024.9,False,154.058,150.018,138.511,36,47,29,98
[I 220610 13:53:45 main_exceptions:80] 0,13:53:45,38.311,73.015,358.852,357.819,28.14,0.021,-0.036,0.957,28.126,14.868,-7.59,-7.428,37.846,35.566,1024.893,False,154.334,150.409,138.564,53,66,46,151
[I 220610 13:53:48 main_exceptions:80] 0,13:53:48,38.173,73.224,358.852,357.819,28.113,0.022,-0.035,0.957,28.115,14.505,-7.628,-6.971,37.788,35.645,1024.946,False,155.534,149.922,139.463,51,64,43,115
[I 220610 13:53:52 main_exceptions:80] 0,13:53:52,38.033,73.436,358.852,357.819,28.128,0.021,-0.035,0.955,28.127,14.363,-7.386,-7.246,38.037,35.48,1024.944,False,154.706,150.084,139.397,52,64,48,151
[I 220610 13:53:55 main_exceptions:80] 0,13:53:55,37.894,73.644,358.852,357.819,28.123,0.021,-0.036,0.957,28.135,14.596,-7.654,-6.737,37.827,35.433,1024.946,False,153.56,150.31,138.714,35,66,47,96
[I 220610 13:53:59 main_exceptions:80] 0,13:53:59,37.751,73.857,358.852,357.819,28.136,0.021,-0.036,0.956,28.134,14.358,-7.549,-6.862,37.846,35.386,1024.945,False,154.835,150.226,138.76,42,52,40,120
[I 220610 13:54:02 main_exceptions:80] 0,13:54:02,37.612,74.062,358.852,357.819,28.141,0.02,-0.037,0.957,28.129,14.613,-7.552,-7.362,37.846,35.689,1024.935,False,155.078,150.203,138.921,46,57,43,132
[I 220610 13:54:06 main_exceptions:80] 0,13:54:06,37.468,74.273,358.852,357.819,28.123,0.022,-0.036,0.956,28.137,14.124,-7.831,-7.391,37.731,35.654,1024.932,False,153.929,150.322,138.497,53,66,47,153
[I 220610 13:54:09 main_exceptions:80] 0,13:54:09,37.325,74.482,358.852,357.819,28.182,0.021,-0.036,0.956,28.2,14.434,-7.599,-6.904,38.037,35.613,1024.944,False,153.938,149.971,139.318,42,54,33,115
[I 220610 13:54:13 main_exceptions:80] 0,13:54:13,37.18,74.692,358.852,357.819,28.203,0.022,-0.035,0.954,28.21,14.708,-7.787,-6.879,37.922,35.775,1024.94,False,154.957,150.329,139.086,34,45,30,153
[I 220610 13:54:16 main_exceptions:80] 0,13:54:16,37.039,74.893,358.852,357.819,28.226,0.022,-0.035,0.956,28.262,14.734,-8.0,-7.08,38.132,35.752,1024.971,False,154.413,149.984,140.458,53,46,33,152
[I 220610 13:54:20 main_exceptions:80] 0,13:54:20,36.895,75.099,358.852,357.819,28.3,0.02,-0.035,0.957,28.35,14.809,-8.084,-6.847,38.189,35.929,1024.944,False,155.24,150.396,138.788,41,52,32,112
[I 220610 13:54:23 main_exceptions:80] 0,13:54:23,36.754,75.299,358.852,357.819,28.378,0.023,-0.035,0.955,28.392,15.126,-8.079,-6.514,38.094,35.879,1024.941,False,154.096,150.139,140.548,50,62,47,146
[I 220610 13:54:27 main_exceptions:80] 0,13:54:27,36.608,75.504,358.852,357.819,28.405,0.022,-0.036,0.956,28.407,14.795,-7.761,-6.33,38.037,35.809,1024.933,False,155.687,150.414,138.923,41,51,39,115
[I 220610 13:54:30 main_exceptions:80] 0,13:54:30,36.463,75.707,358.852,357.819,28.388,0.021,-0.036,0.957,28.346,14.76,-7.582,-6.501,38.056,35.661,1024.94,False,154.678,150.54,138.409,53,66,47,153
[I 220610 13:54:34 main_exceptions:80] 0,13:54:34,36.316,75.911,358.852,357.819,28.329,0.021,-0.035,0.958,28.337,14.655,-7.979,-6.535,38.094,35.506,1024.941,False,155.156,150.218,139.105,49,61,46,101
[I 220610 13:54:37 main_exceptions:80] 0,13:54:37,36.173,76.109,358.852,357.819,28.367,0.022,-0.036,0.957,28.39,14.7,-7.885,-5.995,37.979,35.971,1024.919,False,154.987,150.118,140.503,34,45,31,95
[I 220610 13:54:41 main_exceptions:80] 0,13:54:41,36.026,76.31,358.852,357.819,28.411,0.021,-0.035,0.959,28.457,14.565,-8.192,-6.54,37.827,35.645,1024.975,False,155.786,150.522,138.271,39,50,31,105
[I 220610 13:54:44 main_exceptions:80] 0,13:54:44,35.882,76.506,358.852,357.819,28.51,0.021,-0.036,0.955,28.55,14.925,-8.205,-7.065,37.96,35.433,1024.954,False,155.067,150.36,139.39,35,45,33,98
[I 220610 13:54:47 main_exceptions:80] 0,13:54:47,35.735,76.705,358.852,357.819,28.575,0.022,-0.036,0.956,28.577,14.942,-7.775,-6.917,37.979,35.835,1024.936,False,154.859,150.241,138.86,53,45,30,153
[I 220610 13:54:51 main_exceptions:80] 0,13:54:51,35.592,76.896,358.852,357.819,28.557,0.02,-0.035,0.955,28.545,14.667,-7.68,-7.208,37.941,35.569,1024.91,False,154.2,150.396,138.63,48,59,45,138
[I 220610 13:54:54 main_exceptions:80] 0,13:54:54,35.445,77.093,358.852,357.819,28.535,0.021,-0.034,0.958,28.518,14.912,-7.517,-7.223,37.827,35.847,1024.943,False,154.544,150.118,140.355,43,62,41,122
[I 220610 13:54:58 main_exceptions:80] 0,13:54:58,35.297,77.29,358.852,357.819,28.484,0.021,-0.036,0.955,28.479,14.848,-7.76,-7.186,37.827,35.746,1024.939,False,155.476,150.081,139.711,52,65,45,149
[I 220610 13:55:02 main_exceptions:80] 0,13:55:02,35.148,77.486,358.852,357.819,28.473,0.021,-0.036,0.955,28.477,14.902,-7.835,-7.167,37.903,35.79,1024.977,False,154.52,150.351,139.333,52,65,48,152
[I 220610 13:55:05 main_exceptions:80] 0,13:55:05,34.997,77.684,358.852,357.819,28.473,0.021,-0.034,0.955,28.49,14.325,-7.951,-6.431,38.132,36.211,1024.972,False,154.606,150.617,138.109,49,62,41,139
[I 220610 13:55:09 main_exceptions:80] 0,13:55:09,34.847,77.878,358.852,357.819,28.521,0.021,-0.035,0.956,28.516,14.676,-7.622,-7.132,37.807,35.891,1024.972,False,155.042,150.439,139.288,35,45,33,98
[I 220610 13:55:12 main_exceptions:80] 0,13:55:12,34.697,78.073,358.852,357.819,28.503,0.021,-0.035,0.956,28.495,14.554,-7.7,-6.792,37.674,35.651,1024.993,False,154.587,150.375,138.512,43,54,33,116
[I 220610 13:55:16 main_exceptions:80] 0,13:55:16,34.545,78.269,358.852,357.819,28.494,0.021,-0.034,0.956,28.493,14.765,-7.802,-6.295,37.941,35.79,1024.98,False,155.394,150.106,139.895,53,65,48,153
[I 220610 13:55:19 main_exceptions:80] 0,13:55:19,34.394,78.461,358.852,357.819,28.486,0.022,-0.035,0.956,28.496,14.702,-7.964,-6.411,37.827,35.215,1024.95,False,154.739,150.442,138.992,49,61,31,143
[I 220610 13:55:23 main_exceptions:80] 0,13:55:23,34.246,78.649,358.852,357.819,28.505,0.021,-0.035,0.955,28.49,14.687,-7.602,-6.326,38.151,35.828,1024.969,False,154.705,150.512,138.3,38,49,30,102
[I 220610 13:55:26 main_exceptions:80] 0,13:55:26,34.097,78.837,358.852,357.819,28.464,0.02,-0.036,0.956,28.437,14.786,-7.674,-6.138,37.788,35.512,1024.961,False,155.303,150.159,139.751,36,47,29,98
[I 220610 13:55:30 main_exceptions:80] 0,13:55:30,33.946,79.027,358.852,357.819,28.422,0.021,-0.035,0.957,28.411,14.905,-7.666,-6.816,37.769,35.689,1024.944,False,154.938,149.932,140.743,51,63,43,144
[I 220610 13:55:33 main_exceptions:80] 0,13:55:33,33.792,79.218,358.852,357.819,28.397,0.023,-0.035,0.957,28.409,14.603,-7.921,-6.517,37.96,35.626,1024.928,False,155.233,150.489,139.049,50,62,47,146
[I 220610 13:55:37 main_exceptions:80] 0,13:55:37,33.64,79.407,358.852,357.819,28.429,0.021,-0.036,0.957,28.445,14.655,-7.781,-6.012,37.884,36.05,1024.962,False,155.077,150.054,140.682,38,48,36,106
[I 220610 13:55:40 main_exceptions:80] 0,13:55:40,33.486,79.596,358.852,357.819,28.44,0.02,-0.035,0.958,28.425,14.666,-7.718,-6.446,37.788,35.828,1024.967,False,154.376,150.299,137.935,47,59,45,137
[I 220610 13:55:44 main_exceptions:80] 0,13:55:44,33.333,79.784,358.852,357.819,28.426,0.021,-0.035,0.957,28.442,14.45,-7.887,-7.03,37.693,35.841,1024.96,False,154.139,149.967,139.827,52,65,45,148
[I 220610 13:55:47 main_exceptions:80] 0,13:55:47,33.18,79.969,358.852,357.819,28.472,0.02,-0.035,0.955,28.499,14.548,-7.88,-6.645,37.578,35.816,1024.993,False,154.885,150.298,139.583,34,45,31,95
[I 220610 13:55:51 main_exceptions:80] 0,13:55:51,33.026,80.155,358.852,357.819,28.517,0.022,-0.035,0.959,28.527,14.409,-7.697,-6.286,37.75,36.015,1024.979,False,154.9,150.26,139.48,47,59,38,131
[I 220610 13:55:54 main_exceptions:80] 0,13:55:54,32.871,80.342,358.852,357.819,28.53,0.022,-0.035,0.958,28.503,14.634,-7.461,-6.18,37.941,35.847,1025.007,False,154.408,150.365,138.614,39,50,31,105
[I 220610 13:55:58 main_exceptions:80] 0,13:55:58,32.717,80.526,358.852,357.819,28.472,0.022,-0.035,0.957,28.456,14.732,-7.711,-6.193,37.731,35.831,1024.958,False,154.626,150.378,139.324,38,48,36,106
[I 220610 13:56:01 main_exceptions:80] 0,13:56:01,32.563,80.71,358.852,357.819,28.448,0.023,-0.036,0.956,28.426,14.654,-7.502,-6.557,37.884,35.793,1024.968,False,155.235,150.234,138.808,35,46,29,95
[I 220610 13:56:05 main_exceptions:80] 0,13:56:05,32.408,80.892,358.852,357.819,28.396,0.021,-0.036,0.958,28.367,14.691,-7.564,-6.56,37.636,36.088,1025.015,False,155.468,150.069,139.838,50,62,41,139
[I 220610 13:56:08 main_exceptions:80] 0,13:56:08,32.253,81.074,358.852,357.819,28.358,0.02,-0.035,0.957,28.384,14.676,-7.872,-6.373,37.846,35.831,1024.991,False,154.806,150.288,138.449,34,44,31,94
[I 220610 13:56:12 main_exceptions:80] 0,13:56:12,32.098,81.256,358.852,357.819,28.393,0.02,-0.037,0.958,28.407,14.426,-8.036,-6.459,37.636,35.98,1024.951,False,155.302,150.167,139.598,42,52,40,118
[I 220610 13:56:15 main_exceptions:80] 0,13:56:15,31.943,81.436,358.852,357.819,28.446,0.021,-0.035,0.96,28.453,14.679,-7.792,-6.382,37.788,35.91,1024.986,False,154.604,150.605,138.629,53,65,48,153
[I 220610 13:56:19 main_exceptions:80] 0,13:56:19,31.788,81.614,358.852,357.819,28.453,0.021,-0.035,0.959,28.458,14.519,-7.674,-6.835,37.903,35.939,1024.979,False,154.952,150.231,139.299,39,50,31,106
[I 220610 13:56:22 main_exceptions:80] 0,13:56:22,31.631,81.795,358.852,357.819,28.458,0.021,-0.034,0.96,28.462,14.442,-7.766,-6.71,38.017,36.094,1024.976,False,154.965,150.318,138.456,53,66,46,152
[I 220610 13:56:26 main_exceptions:80] 0,13:56:26,31.475,81.973,358.852,357.819,28.48,0.022,-0.035,0.956,28.509,14.329,-7.807,-7.092,37.827,36.255,1024.969,False,154.712,150.15,138.874,49,60,46,141
