Data's start,Time,Latitude,Longitude,Pitch,Roll,Yaw,Acceleration(x axis),Acceleration(y axis),Acceleration(z axis),North,Compass(x axis),Compass(y axis),Compass(z axis),Temperature,Humidity,Pressure,Movement,R(photo),G(photo),B(photo),R(light),G(light),Blue(light),Clear
[I 220413 10:19:05 main:80] 0,10:19:05,-51.799,-149.051,330.39,67.443,22.034,0.021,0.031,0.017,22.082,21.934,-9.362,6.198,34.76,29.236,1006.73,False,0.0,0.904,0.0,0,0,0,1
[I 220413 10:19:08 main:80] 0,10:19:08,-51.798,-148.714,330.371,67.332,22.104,0.019,0.031,0.015,22.12,30.877,-12.87,8.624,34.458,29.255,1006.729,False,0.0,0.904,0.0,2,2,1,6
[I 220413 10:19:11 main:80] 0,10:19:11,-51.797,-148.387,330.371,67.332,22.133,0.021,0.03,0.013,22.123,34.241,-14.587,8.829,34.636,29.187,1006.729,False,0.0,0.92,0.0,2,2,1,6
[I 220413 10:19:15 main:80] 0,10:19:15,-51.795,-148.058,330.371,67.332,22.107,0.019,0.032,0.013,22.101,35.348,-15.085,9.412,34.582,28.793,1006.71,False,0.0,0.928,0.0,2,2,1,6
[I 220413 10:19:18 main:80] 0,10:19:18,-51.791,-147.728,330.371,67.332,22.093,0.02,0.029,0.013,22.077,36.029,-15.187,9.321,34.831,29.132,1006.73,False,0.0,0.926,0.0,2,2,1,6
[I 220413 10:19:21 main:80] 0,10:19:21,-51.787,-147.404,330.371,67.332,22.06,0.02,0.03,0.015,22.049,36.495,-15.238,9.668,34.547,29.016,1006.736,False,0.0,0.921,0.0,2,2,1,6
[I 220413 10:19:24 main:80] 0,10:19:24,-51.781,-147.077,330.371,67.332,22.044,0.021,0.03,0.015,22.041,36.408,-15.418,9.668,35.436,29.025,1006.7,False,0.0,0.925,0.0,2,2,1,6
[I 220413 10:19:28 main:80] 0,10:19:28,-51.775,-146.751,330.371,67.332,22.034,0.02,0.031,0.015,22.013,36.106,-15.424,9.085,34.778,28.918,1006.701,False,0.0,0.922,0.0,2,2,1,6
[I 220413 10:19:31 main:80] 0,10:19:31,-51.768,-146.419,330.371,67.332,21.989,0.02,0.03,0.015,21.976,35.938,-15.402,9.402,34.476,30.258,1006.71,False,0.0,0.935,0.0,2,2,1,6
[I 220413 10:19:34 main:80] 0,10:19:34,-51.759,-146.091,330.371,67.332,21.971,0.02,0.032,0.013,21.964,36.023,-15.526,9.355,34.867,29.016,1006.72,False,0.0,0.927,0.0,2,2,1,6
[I 220413 10:19:38 main:80] 0,10:19:38,-51.75,-145.762,330.371,67.332,21.957,0.02,0.031,0.013,21.955,35.937,-15.193,9.546,35.062,29.096,1006.723,False,0.0,0.923,0.0,2,2,1,6
[I 220413 10:19:41 main:80] 0,10:19:41,-51.739,-145.431,330.371,67.332,21.962,0.02,0.031,0.011,21.99,35.639,-15.079,9.926,34.902,29.279,1006.698,False,0.0,0.925,0.0,2,2,1,6
[I 220413 10:19:44 main:80] 0,10:19:44,-51.728,-145.102,330.371,67.332,22.009,0.02,0.031,0.014,21.999,35.963,-15.467,9.415,34.529,29.096,1006.717,False,0.0,0.924,0.0,2,2,1,6
[I 220413 10:19:48 main:80] 0,10:19:48,-51.715,-144.775,330.371,67.332,21.999,0.021,0.031,0.015,22.013,35.964,-15.325,9.819,34.796,29.068,1006.708,True,0.0,0.926,0.0,2,2,1,6
[I 220413 10:19:51 main:80] 0,10:19:51,-51.702,-144.447,330.371,67.332,22.028,0.019,0.031,0.013,22.04,35.95,-15.301,9.787,34.547,29.059,1006.692,False,0.0,0.92,0.0,2,2,1,6
[I 220413 10:19:54 main:80] 0,10:19:54,-51.688,-144.118,330.371,67.332,22.049,0.02,0.032,0.014,22.054,35.876,-15.133,9.718,34.6,29.261,1006.683,False,0.0,0.931,0.0,2,2,1,6
[I 220413 10:19:57 main:80] 0,10:19:57,-51.672,-143.793,330.371,67.332,22.062,0.02,0.031,0.015,22.064,35.355,-15.351,9.01,34.814,29.218,1006.709,False,0.0,0.922,0.0,2,2,1,6
[I 220413 10:20:01 main:80] 0,10:20:01,-51.656,-143.466,330.371,67.332,22.042,0.021,0.031,0.012,22.009,35.171,-15.247,8.709,34.849,29.402,1006.719,False,0.0,0.915,0.0,2,2,1,6
[I 220413 10:20:04 main:80] 0,10:20:04,-51.639,-143.139,330.371,67.332,21.983,0.021,0.031,0.013,21.979,35.422,-15.362,9.322,34.885,29.267,1006.71,False,0.0,0.928,0.0,2,2,1,6
[I 220413 10:20:07 main:80] 0,10:20:07,-51.62,-142.81,330.371,67.332,21.986,0.02,0.031,0.013,22.016,35.146,-15.416,9.711,35.347,29.236,1006.698,False,0.0,0.929,0.0,2,2,1,6
[I 220413 10:20:11 main:80] 0,10:20:11,-51.601,-142.483,330.371,67.332,22.037,0.02,0.033,0.014,22.056,35.335,-15.012,9.789,34.778,30.127,1006.71,False,0.0,0.925,0.0,2,2,1,6
[I 220413 10:20:14 main:80] 0,10:20:14,-51.58,-142.155,330.371,67.332,22.075,0.02,0.031,0.013,22.084,35.332,-15.006,9.237,34.956,28.912,1006.713,False,0.0,0.93,0.0,2,2,1,6
[I 220413 10:20:17 main:80] 0,10:20:17,-51.559,-141.83,330.371,67.332,22.069,0.02,0.031,0.013,22.055,35.334,-14.965,9.361,34.814,29.022,1006.719,True,0.0,0.925,0.0,2,2,1,6
[I 220413 10:20:21 main:80] 0,10:20:21,-51.537,-141.501,330.371,67.332,22.043,0.019,0.032,0.015,22.027,35.068,-15.025,9.035,35.062,29.074,1006.748,False,0.0,0.904,0.0,2,2,1,6
[I 220413 10:20:24 main:80] 0,10:20:24,-51.513,-141.177,330.371,67.332,22.006,0.02,0.03,0.013,21.969,34.989,-15.098,8.562,34.885,29.233,1006.716,False,0.0,0.913,0.0,2,2,1,6
[I 220413 10:20:27 main:80] 0,10:20:27,-51.489,-140.851,330.371,67.332,21.933,0.02,0.03,0.014,21.896,34.852,-15.095,8.389,34.582,29.243,1006.735,False,0.0,0.924,0.0,2,2,1,6
[I 220413 10:20:31 main:80] 0,10:20:31,-51.464,-140.523,330.371,67.332,21.854,0.02,0.031,0.013,21.836,34.647,-15.227,9.024,34.831,29.197,1006.748,False,0.0,0.906,0.0,2,2,1,6
[I 220413 10:20:34 main:80] 0,10:20:34,-51.437,-140.197,330.371,67.332,21.835,0.019,0.03,0.015,21.838,34.651,-15.189,9.044,34.938,28.701,1006.683,False,0.0,0.922,0.0,2,2,1,6
[I 220413 10:20:37 main:80] 0,10:20:37,-51.41,-139.876,330.371,67.332,21.836,0.019,0.031,0.014,21.838,34.642,-15.096,8.989,35.418,28.912,1006.69,False,0.0,0.92,0.0,2,2,1,6
[I 220413 10:20:41 main:80] 0,10:20:41,-51.382,-139.554,330.371,67.332,21.83,0.02,0.031,0.014,21.798,34.654,-14.978,8.487,34.511,29.255,1006.719,False,0.0,0.931,0.0,2,2,1,6
[I 220413 10:20:44 main:80] 0,10:20:44,-51.353,-139.232,330.371,67.332,21.774,0.02,0.03,0.014,21.769,34.441,-15.16,9.12,35.489,29.135,1006.728,False,0.0,0.891,0.0,2,2,1,6
[I 220413 10:20:47 main:80] 0,10:20:47,-51.323,-138.907,330.371,67.332,21.776,0.019,0.03,0.015,21.767,34.614,-15.477,8.642,34.938,28.747,1006.725,False,0.0,0.934,0.0,2,2,1,6
[I 220413 10:20:51 main:80] 0,10:20:51,-51.291,-138.582,330.371,67.332,21.751,0.02,0.03,0.012,21.732,34.545,-15.13,8.7,35.223,29.291,1006.732,False,0.0,0.919,0.0,2,2,1,6
[I 220413 10:20:54 main:80] 0,10:20:54,-51.259,-138.257,330.371,67.332,21.722,0.02,0.03,0.013,21.712,33.883,-14.91,8.298,34.814,29.184,1006.751,False,0.0,0.933,0.0,2,2,1,6
[I 220413 10:20:57 main:80] 0,10:20:57,-51.226,-137.933,330.371,67.332,21.692,0.02,0.031,0.013,21.672,33.975,-14.922,7.612,34.938,29.123,1006.708,False,0.0,0.921,0.0,2,2,1,6
[I 220413 10:21:01 main:80] 0,10:21:01,-51.192,-137.611,330.371,67.333,21.607,0.02,0.031,0.014,21.539,33.632,-14.666,7.462,34.582,28.881,1006.726,True,0.0,0.898,0.0,2,2,1,6
[I 220413 10:21:04 main:80] 0,10:21:04,-51.156,-137.288,330.371,67.332,21.481,0.02,0.032,0.012,21.438,33.717,-14.523,7.978,34.618,28.906,1006.747,False,0.0,0.918,0.0,2,2,1,6
[I 220413 10:21:07 main:80] 0,10:21:07,-51.121,-136.97,330.371,67.333,21.409,0.02,0.031,0.013,21.391,33.57,-14.452,8.311,34.92,29.001,1006.739,False,0.0,0.938,0.0,2,2,1,6
[I 220413 10:21:10 main:80] 0,10:21:10,-51.084,-136.65,330.371,67.333,21.379,0.02,0.03,0.014,21.361,33.542,-14.008,8.145,34.529,28.851,1006.732,False,0.0,0.935,0.0,2,2,1,6
[I 220413 10:21:14 main:80] 0,10:21:14,-51.047,-136.335,330.371,67.333,21.334,0.019,0.033,0.015,21.3,33.477,-14.253,7.861,35.454,29.096,1006.724,False,0.0,0.894,0.0,2,2,1,6
[I 220413 10:21:17 main:80] 0,10:21:17,-51.008,-136.019,330.371,67.333,21.268,0.02,0.03,0.016,21.255,33.213,-14.565,8.307,34.92,29.01,1006.708,False,0.0,0.923,0.0,2,2,1,6
[I 220413 10:21:20 main:80] 0,10:21:20,-50.968,-135.702,330.371,67.333,21.257,0.018,0.03,0.013,21.246,33.145,-14.477,7.737,34.778,29.022,1006.709,False,0.0,0.899,0.0,2,2,1,6
[I 220413 10:21:24 main:80] 0,10:21:24,-50.928,-135.386,330.371,67.333,21.211,0.021,0.032,0.013,21.173,33.296,-14.326,7.469,35.027,28.97,1006.745,False,0.0,0.922,0.0,2,2,1,6
[I 220413 10:21:27 main:80] 0,10:21:27,-50.886,-135.065,330.371,67.333,21.127,0.019,0.031,0.013,21.079,33.247,-14.277,7.362,34.582,29.038,1006.725,False,0.0,0.938,0.0,2,2,1,6
[I 220413 10:21:30 main:80] 0,10:21:30,-50.844,-134.752,330.371,67.333,21.033,0.021,0.03,0.013,20.995,33.091,-14.467,7.516,34.618,29.209,1006.71,True,0.0,0.932,0.0,2,2,1,5
[I 220413 10:21:33 main:80] 0,10:21:33,-50.801,-134.439,330.371,67.333,20.966,0.018,0.032,0.013,20.944,32.788,-14.462,7.574,35.454,28.906,1006.694,False,0.0,0.919,0.0,1,1,1,3
[I 220413 10:21:37 main:80] 0,10:21:37,-50.756,-134.123,330.371,67.333,20.93,0.02,0.031,0.014,20.933,32.922,-14.769,7.958,34.902,28.998,1006.701,False,0.0,0.91,0.0,1,1,1,4
[I 220413 10:21:40 main:80] 0,10:21:40,-50.711,-133.811,330.371,67.333,20.936,0.021,0.031,0.013,20.929,32.906,-14.84,7.46,35.294,29.12,1006.712,False,0.0,0.922,0.0,1,1,1,4
[I 220413 10:21:43 main:80] 0,10:21:43,-50.665,-133.499,330.371,67.333,20.908,0.019,0.031,0.012,20.871,32.918,-14.795,6.909,34.956,28.992,1006.734,False,0.0,0.918,0.0,1,1,1,4
[I 220413 10:21:47 main:80] 0,10:21:47,-50.618,-133.187,330.371,67.333,20.822,0.019,0.031,0.013,20.784,32.909,-14.371,7.228,35.045,28.964,1006.714,False,0.0,0.928,0.0,1,1,1,4
[I 220413 10:21:50 main:80] 0,10:21:50,-50.571,-132.877,330.371,67.333,20.746,0.02,0.03,0.013,20.709,33.034,-14.329,7.181,34.885,28.854,1006.719,False,0.0,0.903,0.0,1,1,1,4
[I 220413 10:21:53 main:80] 0,10:21:53,-50.522,-132.569,330.371,67.333,20.674,0.021,0.032,0.011,20.655,32.648,-14.241,7.438,35.08,28.955,1006.737,False,0.0,0.929,0.0,1,1,1,4
[I 220413 10:21:57 main:80] 0,10:21:57,-50.473,-132.26,330.371,67.333,20.637,0.019,0.032,0.014,20.63,32.542,-14.586,6.923,35.116,28.982,1006.721,False,0.0,0.926,0.0,1,1,1,4
[I 220413 10:22:00 main:80] 0,10:22:00,-50.422,-131.95,330.371,67.333,20.588,0.02,0.03,0.013,20.537,32.457,-14.203,6.781,35.525,29.077,1006.759,False,0.0,0.901,0.0,1,1,1,4
[I 220413 10:22:03 main:80] 0,10:22:03,-50.371,-131.642,330.371,67.333,20.486,0.02,0.029,0.013,20.432,32.301,-14.224,6.687,35.383,28.823,1006.749,False,0.0,0.907,0.0,1,1,1,4
[I 220413 10:22:06 main:80] 0,10:22:06,-50.319,-131.336,330.371,67.333,20.394,0.02,0.032,0.012,20.382,32.086,-14.395,7.126,35.027,29.102,1006.731,False,0.0,0.917,0.0,1,1,1,4
[I 220413 10:22:10 main:80] 0,10:22:10,-50.266,-131.03,330.371,67.333,20.371,0.021,0.03,0.011,20.359,32.191,-14.836,6.993,35.027,28.863,1006.74,False,0.0,0.9,0.0,1,1,1,4
[I 220413 10:22:13 main:80] 0,10:22:13,-50.211,-130.72,330.371,67.333,20.342,0.021,0.032,0.012,20.322,32.052,-14.147,7.156,34.689,28.759,1006.716,False,0.0,0.899,0.0,1,1,1,4
[I 220413 10:22:16 main:80] 0,10:22:16,-50.157,-130.417,330.371,67.333,20.303,0.021,0.032,0.014,20.255,32.691,-14.143,6.639,35.151,29.142,1006.739,False,0.0,0.907,0.0,1,1,1,4
[I 220413 10:22:20 main:80] 0,10:22:20,-50.101,-130.112,330.371,67.333,20.214,0.02,0.031,0.013,20.194,32.285,-13.777,6.949,34.92,29.068,1006.749,False,0.0,0.888,0.0,1,1,1,4
[I 220413 10:22:23 main:80] 0,10:22:23,-50.044,-129.807,330.371,67.333,20.169,0.019,0.031,0.012,20.152,32.01,-13.777,6.776,34.92,29.059,1006.726,False,0.0,0.887,0.0,1,1,1,4
[I 220413 10:22:26 main:80] 0,10:22:26,-49.986,-129.5,330.371,67.333,20.122,0.02,0.029,0.012,20.107,31.813,-14.03,7.07,34.778,29.007,1006.751,False,0.0,0.913,0.0,1,1,1,4
[I 220413 10:22:30 main:80] 0,10:22:30,-49.927,-129.194,330.371,67.333,20.1,0.02,0.03,0.015,20.068,31.711,-14.244,6.441,35.187,28.94,1006.751,False,0.0,0.882,0.0,1,1,1,4
[I 220413 10:22:33 main:80] 0,10:22:33,-49.868,-128.891,330.371,67.333,20.032,0.02,0.032,0.013,20.003,31.349,-14.003,6.782,35.187,29.007,1006.727,False,0.0,0.912,0.0,1,1,1,4
[I 220413 10:22:36 main:80] 0,10:22:36,-49.807,-128.589,330.371,67.333,19.992,0.02,0.032,0.014,19.972,31.401,-13.953,6.495,35.098,29.142,1006.71,False,0.0,0.903,0.0,1,1,1,4
[I 220413 10:22:39 main:80] 0,10:22:39,-49.746,-128.29,330.371,67.333,19.953,0.02,0.032,0.014,19.955,31.556,-14.049,6.684,35.027,28.918,1006.731,False,0.0,0.908,0.0,1,1,1,4
[I 220413 10:22:43 main:80] 0,10:22:43,-49.684,-127.989,330.371,67.333,19.947,0.021,0.03,0.014,19.935,31.102,-13.731,6.744,35.151,28.927,1006.739,False,0.0,0.905,0.0,1,1,1,4
[I 220413 10:22:46 main:80] 0,10:22:46,-49.621,-127.686,330.371,67.333,19.926,0.019,0.032,0.014,19.908,31.308,-13.96,6.792,34.92,28.814,1006.763,False,0.0,0.888,0.0,1,1,1,4
[I 220413 10:22:49 main:80] 0,10:22:49,-49.557,-127.386,330.371,67.333,19.898,0.02,0.031,0.013,19.872,31.253,-13.721,6.632,35.169,28.958,1006.737,False,0.0,0.9,0.0,1,1,1,4
[I 220413 10:22:53 main:80] 0,10:22:53,-49.492,-127.087,330.371,67.333,19.853,0.019,0.03,0.014,19.816,30.916,-13.437,6.054,35.116,29.013,1006.731,False,0.0,0.903,0.0,1,1,1,4
[I 220413 10:22:56 main:80] 0,10:22:56,-49.426,-126.788,330.371,67.333,19.775,0.02,0.031,0.012,19.742,30.982,-13.558,5.982,35.649,29.243,1006.74,True,0.0,0.911,0.0,1,1,1,4
[I 220413 10:22:59 main:80] 0,10:22:59,-49.359,-126.49,330.371,67.333,19.701,0.021,0.031,0.012,19.678,30.716,-13.503,6.223,34.796,28.97,1006.745,False,0.0,0.9,0.0,1,1,1,4
[I 220413 10:23:03 main:80] 0,10:23:03,-49.293,-126.198,330.371,67.333,19.654,0.019,0.033,0.014,19.635,30.67,-13.648,6.404,35.08,28.973,1006.753,False,0.0,0.918,0.0,1,1,1,4
[I 220413 10:23:06 main:80] 0,10:23:06,-49.225,-125.903,330.371,67.333,19.625,0.019,0.032,0.012,19.597,30.628,-13.637,5.918,34.707,28.982,1006.775,False,0.0,0.906,0.0,1,1,1,4
[I 220413 10:23:09 main:80] 0,10:23:09,-49.156,-125.607,330.371,67.333,19.56,0.021,0.032,0.015,19.524,30.671,-13.763,5.903,34.867,28.9,1006.735,False,0.0,0.906,0.0,1,1,1,4
[I 220413 10:23:13 main:80] 0,10:23:13,-49.086,-125.315,330.371,67.333,19.49,0.02,0.031,0.015,19.439,30.764,-13.49,5.584,35.223,28.946,1006.743,False,0.0,0.924,0.0,1,1,1,4
[I 220413 10:23:16 main:80] 0,10:23:16,-49.016,-125.024,330.371,67.333,19.386,0.019,0.031,0.012,19.343,30.756,-13.728,5.726,35.383,29.781,1006.729,False,0.0,0.921,0.0,1,1,1,4
[I 220413 10:23:19 main:80] 0,10:23:19,-48.946,-124.736,330.371,67.333,19.305,0.021,0.03,0.012,19.247,30.477,-13.238,5.121,35.454,28.93,1006.708,False,0.0,0.887,0.0,1,1,1,4
[I 220413 10:23:22 main:80] 0,10:23:22,-48.874,-124.449,330.371,67.333,19.158,0.02,0.032,0.012,19.076,30.63,-13.324,5.085,35.187,28.937,1006.726,False,0.0,0.909,0.0,1,1,1,4
[I 220413 10:23:26 main:80] 0,10:23:26,-48.802,-124.162,330.371,67.333,19.0,0.02,0.032,0.014,18.936,30.556,-13.54,5.233,34.778,28.839,1006.729,False,0.0,0.892,0.0,1,1,1,4
[I 220413 10:23:29 main:80] 0,10:23:29,-48.729,-123.873,330.371,67.333,18.882,0.02,0.031,0.015,18.826,30.46,-13.493,4.909,34.76,28.964,1006.755,False,0.0,0.913,0.0,1,1,1,4
[I 220413 10:23:32 main:80] 0,10:23:32,-48.655,-123.586,330.371,67.333,18.756,0.02,0.03,0.015,18.677,30.832,-12.981,4.818,34.814,28.989,1006.767,False,0.0,0.908,0.0,1,1,1,4
[I 220413 10:23:36 main:80] 0,10:23:36,-48.58,-123.301,330.371,67.333,18.596,0.021,0.03,0.009,18.55,30.713,-13.042,5.583,35.205,28.894,1006.737,False,0.0,0.918,0.0,1,1,1,4
[I 220413 10:23:39 main:80] 0,10:23:39,-48.504,-123.015,330.371,67.333,18.519,0.019,0.031,0.014,18.455,30.398,-13.182,4.367,35.08,28.964,1006.779,False,0.0,0.918,0.0,1,1,1,4
[I 220413 10:23:42 main:80] 0,10:23:42,-48.428,-122.731,330.371,67.333,18.359,0.02,0.031,0.014,18.264,30.227,-12.654,4.501,35.187,28.802,1006.767,False,0.0,0.915,0.0,1,1,1,4
[I 220413 10:23:46 main:80] 0,10:23:46,-48.351,-122.45,330.371,67.333,18.195,0.019,0.031,0.014,18.161,30.07,-12.917,4.853,34.814,28.875,1006.763,False,0.0,0.893,0.0,1,1,1,4
[I 220413 10:23:49 main:80] 0,10:23:49,-48.272,-122.164,330.371,67.333,18.1,0.02,0.03,0.013,18.015,30.123,-12.804,4.448,35.258,29.09,1006.785,False,0.0,0.923,0.0,1,1,1,4
[I 220413 10:23:52 main:80] 0,10:23:52,-48.194,-121.885,330.371,67.333,17.944,0.02,0.031,0.016,17.879,30.065,-12.561,4.452,34.956,28.906,1006.769,False,0.0,0.899,0.0,1,1,1,4
[I 220413 10:23:55 main:80] 0,10:23:55,-48.115,-121.607,330.371,67.333,17.801,0.019,0.03,0.014,17.723,29.836,-12.735,4.193,34.885,28.912,1006.769,False,0.0,0.914,0.0,1,1,1,4
[I 220413 10:23:59 main:80] 0,10:23:59,-48.035,-121.328,330.371,67.333,17.646,0.02,0.032,0.013,17.608,29.748,-12.589,4.822,34.956,29.142,1006.748,False,0.0,0.911,0.0,1,1,1,4
[I 220413 10:24:02 main:80] 0,10:24:02,-47.955,-121.052,330.371,67.333,17.579,0.02,0.031,0.014,17.537,29.408,-12.719,4.285,35.667,28.976,1006.759,True,0.0,0.916,0.0,1,1,1,4
[I 220413 10:24:05 main:80] 0,10:24:05,-47.873,-120.774,330.371,67.333,17.473,0.02,0.031,0.013,17.403,29.467,-12.288,4.31,35.205,28.937,1006.762,False,0.0,0.916,0.0,1,1,1,4
[I 220413 10:24:08 main:80] 0,10:24:08,-47.791,-120.499,330.371,67.333,17.346,0.019,0.033,0.015,17.288,29.589,-12.264,4.101,34.956,28.909,1006.78,False,0.0,0.898,0.0,1,1,1,4
[I 220413 10:24:12 main:80] 0,10:24:12,-47.708,-120.222,330.371,67.333,17.214,0.02,0.032,0.013,17.13,29.54,-12.368,3.785,35.258,28.933,1006.773,False,0.0,0.909,0.0,1,1,1,4
[I 220413 10:24:15 main:80] 0,10:24:15,-47.623,-119.944,330.371,67.333,17.043,0.02,0.031,0.014,16.951,29.005,-12.194,3.72,34.974,28.759,1006.793,False,0.0,0.918,0.0,1,1,1,4
[I 220413 10:24:18 main:80] 0,10:24:18,-47.539,-119.673,330.371,67.333,16.868,0.02,0.031,0.014,16.797,29.074,-12.463,3.826,34.974,28.814,1006.767,False,0.0,0.921,0.0,1,1,1,4
[I 220413 10:24:22 main:80] 0,10:24:22,-47.454,-119.401,330.371,67.333,16.736,0.02,0.032,0.013,16.695,29.203,-12.208,3.961,35.703,29.105,1006.75,False,0.0,0.894,0.0,1,1,1,4
[I 220413 10:24:25 main:80] 0,10:24:25,-47.369,-119.131,330.371,67.333,16.65,0.018,0.029,0.014,16.602,29.256,-12.207,3.981,35.756,28.989,1006.759,False,0.0,0.917,0.0,1,1,1,4
[I 220413 10:24:28 main:80] 0,10:24:28,-47.283,-118.861,330.371,67.333,16.555,0.021,0.032,0.012,16.513,28.863,-12.285,3.782,35.223,28.833,1006.776,False,0.0,0.906,0.0,1,1,1,4
[I 220413 10:24:31 main:80] 0,10:24:31,-47.196,-118.593,330.371,67.333,16.465,0.021,0.032,0.015,16.412,28.834,-12.038,3.544,35.969,28.829,1006.79,False,0.0,0.904,0.0,1,1,1,4
[I 220413 10:24:35 main:80] 0,10:24:35,-47.108,-118.324,330.371,67.333,16.362,0.02,0.031,0.015,16.304,28.807,-12.013,3.696,35.294,28.768,1006.788,False,0.0,0.89,0.0,1,1,1,4
[I 220413 10:24:38 main:80] 0,10:24:38,-47.018,-118.053,330.371,67.333,16.257,0.018,0.031,0.014,16.212,29.332,-12.141,3.853,34.974,28.796,1006.758,False,0.0,0.918,0.0,1,1,1,4
[I 220413 10:24:41 main:80] 0,10:24:41,-46.928,-117.784,330.371,67.333,16.174,0.02,0.031,0.011,16.141,29.499,-12.141,3.925,35.258,28.909,1006.774,False,0.0,0.906,0.0,1,1,1,4
[I 220413 10:24:45 main:80] 0,10:24:45,-46.837,-117.515,330.371,67.333,16.104,0.021,0.032,0.014,16.065,29.467,-12.056,3.793,35.311,28.906,1006.762,False,0.0,0.9,0.0,1,1,1,4
[I 220413 10:24:48 main:80] 0,10:24:48,-46.745,-117.247,330.371,67.333,16.024,0.02,0.03,0.012,15.957,29.177,-11.966,3.227,35.045,28.784,1006.776,False,0.0,0.912,0.0,1,1,1,4
[I 220413 10:24:51 main:80] 0,10:24:51,-46.652,-116.978,330.371,67.333,15.877,0.02,0.03,0.012,15.802,28.502,-11.537,2.96,35.863,28.982,1006.761,False,0.0,0.915,0.0,1,1,1,4
[I 220413 10:24:55 main:80] 0,10:24:55,-46.56,-116.715,330.371,67.333,15.719,0.02,0.031,0.016,15.637,28.425,-11.301,2.946,35.151,28.667,1006.79,False,0.0,0.883,0.0,1,1,1,4
[I 220413 10:24:58 main:80] 0,10:24:58,-46.466,-116.449,330.371,67.333,15.557,0.019,0.032,0.016,15.487,28.306,-11.772,2.982,35.4,28.937,1006.775,True,0.0,0.91,0.0,1,1,1,4
[I 220413 10:25:01 main:80] 0,10:25:01,-46.372,-116.187,330.371,67.333,15.422,0.019,0.03,0.012,15.351,28.473,-11.723,2.982,35.134,28.958,1006.756,False,0.0,0.894,0.0,1,1,1,4
[I 220413 10:25:05 main:80] 0,10:25:05,-46.277,-115.924,330.371,67.333,15.284,0.023,0.032,0.015,15.199,28.371,-11.464,2.585,35.045,28.851,1006.778,False,0.0,0.887,0.0,1,1,1,4
[I 220413 10:25:08 main:80] 0,10:25:08,-46.182,-115.664,330.371,67.333,15.113,0.019,0.03,0.013,15.029,28.234,-11.262,2.628,35.329,28.459,1006.776,False,0.0,0.884,0.0,1,1,1,4
[I 220413 10:25:11 main:80] 0,10:25:11,-46.086,-115.404,330.371,67.333,14.948,0.02,0.032,0.014,14.865,28.645,-11.263,2.629,34.991,28.814,1006.753,False,0.0,0.883,0.0,1,1,1,4
[I 220413 10:25:15 main:80] 0,10:25:15,-45.989,-115.142,330.371,67.333,14.792,0.021,0.032,0.014,14.734,28.211,-11.444,2.95,35.08,28.52,1006.776,False,0.0,0.914,0.0,1,1,1,4
[I 220413 10:25:18 main:80] 0,10:25:18,-45.89,-114.881,330.371,67.333,14.692,0.019,0.032,0.015,14.632,28.118,-11.082,2.261,35.347,28.728,1006.776,False,0.0,0.897,0.0,1,1,1,4
[I 220413 10:25:21 main:80] 0,10:25:21,-45.792,-114.624,330.371,67.333,14.543,0.02,0.032,0.014,14.463,28.24,-11.347,2.391,35.24,28.658,1006.766,False,0.0,0.912,0.0,1,1,1,4
[I 220413 10:25:25 main:80] 0,10:25:25,-45.693,-114.367,330.371,67.333,14.389,0.019,0.032,0.014,14.316,28.046,-11.207,2.49,35.009,28.704,1006.773,False,0.0,0.883,0.0,1,1,1,4
[I 220413 10:25:28 main:80] 0,10:25:28,-45.594,-114.111,330.371,67.333,14.266,0.018,0.033,0.015,14.239,27.972,-11.063,2.947,35.436,28.759,1006.778,False,0.0,0.922,0.0,1,1,1,4
[I 220413 10:25:31 main:80] 0,10:25:31,-45.493,-113.854,330.371,67.333,14.21,0.017,0.03,0.014,14.164,27.894,-10.868,2.552,35.24,28.624,1006.783,True,0.0,0.909,0.0,1,1,1,4
[I 220413 10:25:35 main:80] 0,10:25:35,-45.392,-113.6,330.371,67.333,14.11,0.022,0.035,0.015,14.054,27.644,-10.855,2.424,35.827,28.937,1006.745,False,0.0,0.91,0.0,1,1,1,4
[I 220413 10:25:38 main:80] 0,10:25:38,-45.29,-113.346,330.371,67.333,14.004,0.02,0.031,0.012,13.97,27.266,-11.15,2.572,35.4,28.692,1006.796,False,0.0,0.895,0.0,1,1,1,4
[I 220413 10:25:41 main:80] 0,10:25:41,-45.189,-113.095,330.371,67.333,13.934,0.02,0.032,0.014,13.887,27.368,-11.3,2.455,35.116,28.811,1006.777,False,0.0,0.904,0.0,1,1,1,4
[I 220413 10:25:44 main:80] 0,10:25:44,-45.086,-112.843,330.371,67.333,13.858,0.02,0.032,0.013,13.827,27.328,-10.865,2.324,35.276,28.82,1006.772,True,0.0,0.884,0.0,1,1,1,4
[I 220413 10:25:48 main:80] 0,10:25:48,-44.982,-112.591,330.371,67.333,13.77,0.02,0.03,0.012,13.7,27.302,-10.767,2.184,35.845,28.9,1006.778,False,0.0,0.908,0.0,1,1,1,4
[I 220413 10:25:51 main:80] 0,10:25:51,-44.877,-112.341,330.371,67.333,13.646,0.02,0.033,0.012,13.587,26.797,-10.785,1.648,35.418,28.808,1006.794,False,0.0,0.91,0.0,1,1,1,4
[I 220413 10:25:54 main:80] 0,10:25:54,-44.773,-112.092,330.371,67.333,13.498,0.02,0.031,0.016,13.401,27.043,-10.927,1.445,36.165,28.915,1006.766,False,0.0,0.894,0.0,1,1,1,4
[I 220413 10:25:58 main:80] 0,10:25:58,-44.668,-111.846,330.371,67.333,13.305,0.02,0.031,0.012,13.205,27.32,-10.722,1.553,36.058,28.774,1006.773,False,0.0,0.9,0.0,1,1,1,4
[I 220413 10:26:01 main:80] 0,10:26:01,-44.562,-111.599,330.371,67.333,13.124,0.02,0.03,0.012,13.056,27.018,-10.974,1.629,35.4,28.854,1006.786,False,0.0,0.897,0.0,1,1,1,4
[I 220413 10:26:04 main:80] 0,10:26:04,-44.455,-111.351,330.371,67.333,12.988,0.019,0.029,0.013,12.899,27.218,-10.837,1.131,35.276,28.909,1006.743,False,0.0,0.893,0.0,1,1,1,3
[I 220413 10:26:08 main:80] 0,10:26:08,-44.348,-111.107,330.371,67.333,12.801,0.019,0.03,0.01,12.712,27.356,-10.482,1.423,35.489,28.829,1006.797,False,0.0,0.901,0.0,1,1,1,3
[I 220413 10:26:11 main:80] 0,10:26:11,-44.241,-110.864,330.371,67.333,12.626,0.02,0.031,0.012,12.559,27.115,-10.368,1.766,35.223,28.612,1006.745,False,0.0,0.916,0.0,1,1,1,4
[I 220413 10:26:14 main:80] 0,10:26:14,-44.133,-110.622,330.371,67.333,12.515,0.02,0.032,0.013,12.476,27.277,-10.572,1.578,35.276,28.701,1006.77,False,0.0,0.917,0.0,1,1,1,3
[I 220413 10:26:18 main:80] 0,10:26:18,-44.026,-110.383,330.371,67.333,12.415,0.021,0.032,0.014,12.339,27.111,-10.391,1.157,35.56,28.839,1006.755,False,0.0,0.91,0.0,1,1,1,3
[I 220413 10:26:21 main:80] 0,10:26:21,-43.917,-110.143,330.371,67.333,12.253,0.019,0.03,0.014,12.168,27.0,-10.319,1.119,35.134,28.465,1006.785,True,0.0,0.9,0.0,1,1,1,4
[I 220413 10:26:24 main:80] 0,10:26:24,-43.807,-109.903,330.371,67.333,12.091,0.02,0.03,0.016,12.023,26.756,-9.881,1.33,35.898,29.16,1006.769,False,0.0,0.906,0.0,1,1,1,5
[I 220413 10:26:27 main:80] 0,10:26:27,-43.698,-109.667,330.371,67.333,11.965,0.02,0.031,0.012,11.928,26.826,-9.767,1.671,35.436,28.927,1006.767,False,0.0,0.9,0.0,1,1,1,4
[I 220413 10:26:31 main:80] 0,10:26:31,-43.588,-109.43,330.371,67.333,11.889,0.022,0.028,0.008,11.85,26.599,-9.819,1.53,35.223,28.771,1006.778,True,0.0,0.923,0.0,1,1,1,3
[I 220413 10:26:34 main:80] 0,10:26:34,-43.477,-109.193,330.371,67.333,11.807,0.019,0.031,0.013,11.76,26.536,-10.196,1.374,35.223,28.75,1006.783,False,0.0,0.911,0.0,1,1,1,3
[I 220413 10:26:37 main:80] 0,10:26:37,-43.365,-108.958,330.371,67.333,11.71,0.019,0.031,0.014,11.642,26.331,-10.061,1.113,35.667,28.927,1006.761,False,0.0,0.875,0.0,1,1,1,3
[I 220413 10:26:41 main:80] 0,10:26:41,-43.253,-108.723,330.371,67.333,11.588,0.02,0.031,0.012,11.537,26.323,-9.935,1.306,35.507,28.75,1006.749,False,0.0,0.913,0.0,1,1,1,3
[I 220413 10:26:44 main:80] 0,10:26:44,-43.14,-108.489,330.371,67.333,11.507,0.019,0.031,0.013,11.479,26.029,-9.95,1.422,36.094,28.866,1006.739,False,0.0,0.905,0.0,1,1,1,3
[I 220413 10:26:47 main:80] 0,10:26:47,-43.028,-108.259,330.371,67.333,11.443,0.02,0.032,0.013,11.382,26.083,-9.816,0.959,35.543,28.514,1006.747,False,0.0,0.912,0.0,1,1,1,3
[I 220413 10:26:51 main:80] 0,10:26:51,-42.915,-108.028,330.371,67.333,11.322,0.021,0.032,0.013,11.288,26.491,-9.845,1.383,35.934,28.906,1006.758,False,0.0,0.918,0.0,1,1,1,3
[I 220413 10:26:54 main:80] 0,10:26:54,-42.8,-107.796,330.371,67.333,11.258,0.022,0.034,0.015,11.219,26.376,-9.734,0.987,35.88,28.851,1006.747,False,0.0,0.919,0.0,1,1,1,3
[I 220413 10:26:57 main:80] 0,10:26:57,-42.684,-107.564,330.371,67.333,11.168,0.02,0.033,0.017,11.135,25.97,-9.858,1.095,35.578,28.796,1006.775,False,0.0,0.91,0.0,1,1,1,4
[I 220413 10:27:01 main:80] 0,10:27:01,-42.569,-107.335,330.371,67.333,11.095,0.02,0.033,0.015,11.054,26.169,-9.564,0.902,36.289,28.891,1006.772,False,0.0,0.913,0.0,1,1,1,4
[I 220413 10:27:04 main:80] 0,10:27:04,-42.452,-107.104,330.371,67.333,10.993,0.019,0.033,0.014,10.932,26.101,-9.562,0.955,35.329,28.735,1006.764,False,0.0,0.906,0.0,1,1,1,4
[I 220413 10:27:07 main:80] 0,10:27:07,-42.335,-106.876,330.371,67.333,10.885,0.02,0.032,0.015,10.844,26.187,-9.536,0.804,35.56,28.435,1006.752,False,0.0,0.931,0.0,1,1,1,4
[I 220413 10:27:11 main:80] 0,10:27:11,-42.217,-106.648,330.371,67.333,10.775,0.019,0.032,0.015,10.683,25.825,-9.047,0.322,35.649,28.881,1006.77,False,0.0,0.93,0.0,1,1,1,4
[I 220413 10:27:14 main:80] 0,10:27:14,-42.1,-106.422,330.371,67.333,10.588,0.019,0.031,0.012,10.513,25.831,-9.255,0.549,35.525,28.64,1006.746,False,0.0,0.911,0.0,1,1,1,4
[I 220413 10:27:17 main:80] 0,10:27:17,-41.981,-106.195,330.371,67.333,10.446,0.019,0.031,0.015,10.394,26.089,-9.318,0.778,35.543,29.007,1006.763,False,0.0,0.911,0.0,1,1,1,4
[I 220413 10:27:20 main:80] 0,10:27:20,-41.863,-105.972,330.371,67.333,10.336,0.02,0.029,0.008,10.315,26.086,-9.177,1.171,35.56,28.833,1006.746,True,0.0,0.901,0.0,1,1,1,4
